stop_id,arrival_info,stop_number,stop_name,latitude,longitude,direction,route_id
1004700340,,1,臺北車站(公園),25.043929,121.516775,go,0100000A00
1004600040,,2,捷運台大醫院站,25.041935,121.5161481,go,0100000A00
1004800920,,3,中正紀念堂,25.037153,121.520771,go,0100000A00
1004800820,,4,信義杭州路口,25.0357,121.5238361,go,0100000A00
1064100120,,5,捷運東門站,25.034134,121.5269937,go,0100000A00
1065000320,,6,信義永康街口(捷運東門站),25.033693,121.529727,go,0100000A00
1006100020,,7,信義新生路口,25.03353,121.5323283,go,0100000A00
1065600420,,8,捷運大安森林公園站,25.033496,121.5356316,go,0100000A00
1065800120,,9,信義建國路口,25.033441,121.539045,go,0100000A00
1065800420,,10,捷運大安站(信義),25.033323,121.5432319,go,0100000A00
1068300220,,11,信義大安路口,25.0332,121.5456,go,0100000A00
1068100120,,12,信義敦化路口,25.033262,121.548298,go,0100000A00
1068900100,,13,仁愛國中,25.035951,121.5490897,go,0100000A00
1068900400,,14,安和敦化路口,25.039761,121.5489579,go,0100000A00
1069000200,,15,捷運忠孝敦化站,25.043012,121.549174,go,0100000A00
1055700000,,16,市民大道口,25.045757,121.5491941,go,0100000A00
1055900020,,17,臺視,25.04807,121.5511,go,0100000A00
1055400120,,18,美仁里,25.048,121.55415,go,0100000A00
1056000100,,19,榮民服務處,25.048703,121.557946,go,0100000A00
1057900100,,20,南京新村,25.052989,121.556952,go,0100000A00
1058600020,,21,三軍總醫院松山分院,25.05367,121.55726,go,0100000A00
1058600120,,22,長壽公園,25.05381,121.55985,go,0100000A00
1058600220,,23,健康新城,25.053978,121.5626621,go,0100000A00
1058200000,,24,三民健康路口(西松高中),25.054814,121.5638473,go,0100000A00
1058200100,,25,三民路,25.05753,121.56368,go,0100000A00
1058900120,,26,新東街口,25.05902,121.5664423,go,0100000A00
1059400200,,27,民生國中,25.060189,121.5676949,go,0100000A00
1059200100,,28,新益里,25.062445,121.566269,go,0100000A00
1149400320,,29,民權大橋,25.066876,121.5794778,go,0100000A00
1149401020,,30,時報廣場,25.068084,121.5821211,go,0100000A00
1146600020,,31,三民國中,25.068803,121.5854057,go,0100000A00
1146600120,,32,內湖行政大樓,25.068934,121.5889192,go,0100000A00
1147200100,,33,國防醫學中心,25.07121,121.5900311,go,0100000A00
1149000200,,34,三總內湖站,25.071852,121.592095,go,0100000A00
1147200200,,35,將軍嶺,25.073809,121.5900167,go,0100000A00
1146200000,,36,方濟中學,25.076884,121.5902313,go,0100000A00
1147500060,,37,內湖高中,25.079013,121.5883097,go,0100000A00
1147500260,,38,捷運文德站(碧湖公園),25.078585,121.584249,go,0100000A00
1147300060,,39,湖光國宅,25.07859,121.58078,go,0100000A00
1144700061,,40,西湖圖書館(湖光教會),25.07889,121.578499,go,0100000A00
1144800240,,41,港墘派出所,25.078636,121.57619,go,0100000A00
1149100230,,42,瑞光路,25.074821,121.577343,go,0100000A00
1149100040,,43,公館山,25.071988,121.5809507,go,0100000A00
1149100340,,44,麗寶大樓,25.070391,121.582671,go,0100000A00
1149400261,,45,瑞湖街口,25.067659,121.576798,go,0100000A00
1004801100,14分鐘,46,捷運台大醫院站,25.041927,121.5163535,go,0100000A00
1004700200,16分鐘,47,博物館(館前),25.044177,121.5150573,go,0100000A00
1004100720,18分鐘,48,臺北車站(忠孝),25.046563,121.5156894,go,0100000A00
1004700340,21分鐘,1,臺北車站(公園),25.043929,121.516775,come,0100000A00
1004600040,23分鐘,2,捷運台大醫院站,25.041935,121.5161481,come,0100000A00
1004800920,27分鐘,3,中正紀念堂,25.037153,121.520771,come,0100000A00
1004800820,進站中,4,信義杭州路口,25.0357,121.5238361,come,0100000A00
1064100120,進站中,5,捷運東門站,25.034134,121.5269937,come,0100000A00
1065000320,3分鐘,6,信義永康街口(捷運東門站),25.033693,121.529727,come,0100000A00
1006100020,4分鐘,7,信義新生路口,25.03353,121.5323283,come,0100000A00
1065600420,6分鐘,8,捷運大安森林公園站,25.033496,121.5356316,come,0100000A00
1065800120,8分鐘,9,信義建國路口,25.033441,121.539045,come,0100000A00
1065800420,10分鐘,10,捷運大安站(信義),25.033323,121.5432319,come,0100000A00
1068300220,11分鐘,11,信義大安路口,25.0332,121.5456,come,0100000A00
1068100120,12分鐘,12,信義敦化路口,25.033262,121.548298,come,0100000A00
1068900100,進站中,13,仁愛國中,25.035951,121.5490897,come,0100000A00
1068900400,進站中,14,安和敦化路口,25.039761,121.5489579,come,0100000A00
1069000200,5分鐘,15,捷運忠孝敦化站,25.043012,121.549174,come,0100000A00
1055700000,7分鐘,16,市民大道口,25.045757,121.5491941,come,0100000A00
1055900020,10分鐘,17,臺視,25.04807,121.5511,come,0100000A00
1055400120,13分鐘,18,美仁里,25.048,121.55415,come,0100000A00
1056000100,14分鐘,19,榮民服務處,25.048703,121.557946,come,0100000A00
1057900100,19分鐘,20,南京新村,25.052989,121.556952,come,0100000A00
1058600020,20分鐘,21,三軍總醫院松山分院,25.05367,121.55726,come,0100000A00
1058600120,21分鐘,22,長壽公園,25.05381,121.55985,come,0100000A00
1058600220,22分鐘,23,健康新城,25.053978,121.5626621,come,0100000A00
1058200000,23分鐘,24,三民健康路口(西松高中),25.054814,121.5638473,come,0100000A00
1058200100,26分鐘,25,三民路,25.05753,121.56368,come,0100000A00
1058900120,29分鐘,26,新東街口,25.05902,121.5664423,come,0100000A00
1059400200,30分鐘,27,民生國中,25.060189,121.5676949,come,0100000A00
1059200100,32分鐘,28,新益里,25.062445,121.566269,come,0100000A00
1149400320,進站中,29,民權大橋,25.066876,121.5794778,come,0100000A00
1149401020,進站中,30,時報廣場,25.068084,121.5821211,come,0100000A00
1146600020,3分鐘,31,三民國中,25.068803,121.5854057,come,0100000A00
1146600120,5分鐘,32,內湖行政大樓,25.068934,121.5889192,come,0100000A00
1147200100,8分鐘,33,國防醫學中心,25.07121,121.5900311,come,0100000A00
1149000200,9分鐘,34,三總內湖站,25.071852,121.592095,come,0100000A00
1147200200,13分鐘,35,將軍嶺,25.073809,121.5900167,come,0100000A00
1146200000,14分鐘,36,方濟中學,25.076884,121.5902313,come,0100000A00
1147500060,15分鐘,37,內湖高中,25.079013,121.5883097,come,0100000A00
1147500260,16分鐘,38,捷運文德站(碧湖公園),25.078585,121.584249,come,0100000A00
1147300060,17分鐘,39,湖光國宅,25.07859,121.58078,come,0100000A00
1144700061,19分鐘,40,西湖圖書館(湖光教會),25.07889,121.578499,come,0100000A00
1144800240,21分鐘,41,港墘派出所,25.078636,121.57619,come,0100000A00
1149100230,26分鐘,42,瑞光路,25.074821,121.577343,come,0100000A00
1149100040,29分鐘,43,公館山,25.071988,121.5809507,come,0100000A00
1149100340,30分鐘,44,麗寶大樓,25.070391,121.582671,come,0100000A00
1149400261,3分鐘,45,瑞湖街口,25.067659,121.576798,come,0100000A00
1004801100,,46,捷運台大醫院站,25.041927,121.5163535,come,0100000A00
1004700200,,47,博物館(館前),25.044177,121.5150573,come,0100000A00
1004100720,,48,臺北車站(忠孝),25.046563,121.5156894,come,0100000A00
1065000320,,1,信義永康街口(捷運東門站),25.033693,121.529727,go,0100000B00
1065000240,,2,金華新生路口,25.03087,121.53346,go,0100000B00
1064400040,,3,和平新生路口,25.02639,121.53478,go,0100000B00
1066000240,,4,龍安國小(公務人力發展學院),25.024664,121.5345198,go,0100000B00
1066000140,,5,臺大綜合體育館,25.02155,121.5341136,go,0100000B00
1067300840,,6,臺大,25.018239,121.533435,go,0100000B00
1009000140,,7,捷運公館站,25.014321,121.534722,go,0100000B00
1167700041,,8,師大分部,25.00814,121.538064,go,0100000B00
1168100020,,9,武功國小(興隆),25.004127,121.5398685,go,0100000B00
1168000020,,10,景明街口,25.001631,121.5422579,go,0100000B00
1168000140,,11,憲光公寓,24.999433,121.5438916,go,0100000B00
1168700320,,12,靜心高中,24.998797,121.545859,go,0100000B00
1168700020,,13,興隆市場,24.999632,121.547902,go,0100000B00
1168900420,,14,興德國小,25.00097,121.5503078,go,0100000B00
1169000020,,15,興隆國小,25.001221,121.5533283,go,0100000B00
1169500121,,16,捷運萬芳醫院站,24.999051,121.557681,go,0100000B00
1169800240,,17,臺灣警察專科學校,24.998268,121.5584948,go,0100000B00
1169600020,,18,文山運動中心(萬芳),24.996958,121.56078,go,0100000B00
1169600320,,19,棕櫚泉社區,24.99729,121.56229,go,0100000B00
1165300220,,20,萬利街口,24.998733,121.56623,go,0100000B00
1165300120,,21,捷運萬芳社區站,24.998858,121.5680836,go,0100000B00
1165300500,,22,萬芳6號公園,24.999654,121.569055,go,0100000B00
1165300460,,23,萬芳國小,25.001533,121.567472,go,0100000B00
1166500420,,24,萬芳活動中心,25.002391,121.5683789,go,0100000B00
1165300320,,25,萬芳社區,25.002253,121.5698159,go,0100000B00
1064200000,3分鐘,26,公企中心,25.03066,121.52673,go,0100000B00
1065000500,4分鐘,27,捷運東門站(金山),25.033211,121.5272129,go,0100000B00
1065000320,7分鐘,1,信義永康街口(捷運東門站),25.033693,121.529727,come,0100000B00
1065000240,11分鐘,2,金華新生路口,25.03087,121.53346,come,0100000B00
1064400040,12分鐘,3,和平新生路口,25.02639,121.53478,come,0100000B00
1066000240,14分鐘,4,龍安國小(公務人力發展學院),25.024664,121.5345198,come,0100000B00
1066000140,15分鐘,5,臺大綜合體育館,25.02155,121.5341136,come,0100000B00
1067300840,16分鐘,6,臺大,25.018239,121.533435,come,0100000B00
1009000140,18分鐘,7,捷運公館站,25.014321,121.534722,come,0100000B00
1167700041,20分鐘,8,師大分部,25.00814,121.538064,come,0100000B00
1168100020,22分鐘,9,武功國小(興隆),25.004127,121.5398685,come,0100000B00
1168000020,24分鐘,10,景明街口,25.001631,121.5422579,come,0100000B00
1168000140,24分鐘,11,憲光公寓,24.999433,121.5438916,come,0100000B00
1168700320,26分鐘,12,靜心高中,24.998797,121.545859,come,0100000B00
1168700020,27分鐘,13,興隆市場,24.999632,121.547902,come,0100000B00
1168900420,28分鐘,14,興德國小,25.00097,121.5503078,come,0100000B00
1169000020,進站中,15,興隆國小,25.001221,121.5533283,come,0100000B00
1169500121,4分鐘,16,捷運萬芳醫院站,24.999051,121.557681,come,0100000B00
1169800240,6分鐘,17,臺灣警察專科學校,24.998268,121.5584948,come,0100000B00
1169600020,8分鐘,18,文山運動中心(萬芳),24.996958,121.56078,come,0100000B00
1169600320,9分鐘,19,棕櫚泉社區,24.99729,121.56229,come,0100000B00
1165300220,10分鐘,20,萬利街口,24.998733,121.56623,come,0100000B00
1165300120,10分鐘,21,捷運萬芳社區站,24.998858,121.5680836,come,0100000B00
1165300500,11分鐘,22,萬芳6號公園,24.999654,121.569055,come,0100000B00
1165300460,12分鐘,23,萬芳國小,25.001533,121.567472,come,0100000B00
1166500420,13分鐘,24,萬芳活動中心,25.002391,121.5683789,come,0100000B00
1165300320,14分鐘,25,萬芳社區,25.002253,121.5698159,come,0100000B00
1064200000,,26,公企中心,25.03066,121.52673,come,0100000B00
1065000500,,27,捷運東門站(金山),25.033211,121.5272129,come,0100000B00
1104600200,,1,松仁路,25.02453,121.5695997,go,0100000100
1104600000,,2,吳興國小(松仁),25.026234,121.568628,go,0100000100
1105000200,,3,信義國中(莊敬),25.027607,121.56521,go,0100000100
1105000300,,4,臺北醫學大學,25.028241,121.5634888,go,0100000100
1104900400,,5,景新里,25.029526,121.5623852,go,0100000100
1104900100,,6,世貿中心(莊敬),25.031399,121.561326,go,0100000100
1105200040,,7,吳興街口,25.031594,121.5586001,go,0100000100
1067700140,,8,三興國小(臨江街觀光夜市),25.028215,121.556522,go,0100000100
1067500340,,9,喬治商職,25.02633,121.5546403,go,0100000100
1067500240,,10,捷運六張犁站(基隆路),25.023428,121.551345,go,0100000100
1105200140,,11,和平高中,25.02024,121.54763,go,0100000100
1067200460,,12,基隆長興街口,25.018512,121.5456371,go,0100000100
1067200760,,13,臺大癌醫(基隆路),25.015713,121.5422472,go,0100000100
1060700060,,14,臺灣科技大學,25.014151,121.540464,go,0100000100
1067300060,,15,公館,25.012108,121.5380694,go,0100000100
1009000160,,16,捷運公館站,25.015228,121.534086,go,0100000100
1067300200,,17,台電大樓,25.018486,121.530566,go,0100000100
1064700300,,18,捷運台電大樓站,25.02092,121.52803,go,0100000100
1064600300,,19,羅斯福浦城街口,25.022311,121.5265002,go,0100000100
1008400300,,20,羅斯福金門街口,25.024106,121.5246768,go,0100000100
1008400200,,21,捷運古亭站(羅斯福),25.02678,121.52269,go,0100000100
1064200100,,22,捷運古亭站(杭州),25.02886,121.5219375,go,0100000100
1007800060,,23,南福板溪(南昌公園),25.02681,121.52053,go,0100000100
1007800300,,24,牯嶺街,25.02814,121.51789,go,0100000100
1007600100,,25,自來水西分處(牯嶺),25.029865,121.5166342,go,0100000100
1007500200,,26,牯嶺街小劇場,25.03176,121.51518,go,0100000100
1006600560,,27,建國中學(歷史博物館),25.031565,121.512879,go,0100000100
1007000260,,28,植物園,25.03088,121.508711,go,0100000100
1006600360,,29,和平中華路口,25.033191,121.50578,go,0100000100
1085100060,,30,昆明街口,25.035341,121.5020082,go,0100000100
1085200360,,31,捷運龍山寺站,25.03538,121.49971,go,0100000100
1085500160,,32,中國時報,25.035454,121.4969752,go,0100000100
1088300140,,33,華江派出所,25.034006,121.493016,go,0100000100
1085800140,,34,大理高中,25.03162,121.490827,go,0100000100
1085800060,,35,人壽一村,25.032073,121.4895177,go,0100000100
1085800360,,36,華江站,25.032333,121.4889822,go,0100000100
1104600200,進站中,1,松仁路,25.02453,121.5695997,come,0100000100
1104600000,3分鐘,2,吳興國小(松仁),25.026234,121.568628,come,0100000100
1105000200,5分鐘,3,信義國中(莊敬),25.027607,121.56521,come,0100000100
1105000300,6分鐘,4,臺北醫學大學,25.028241,121.5634888,come,0100000100
1104900400,8分鐘,5,景新里,25.029526,121.5623852,come,0100000100
1104900100,9分鐘,6,世貿中心(莊敬),25.031399,121.561326,come,0100000100
1105200040,5分鐘,7,吳興街口,25.031594,121.5586001,come,0100000100
1067700140,進站中,8,三興國小(臨江街觀光夜市),25.028215,121.556522,come,0100000100
1067500340,3分鐘,9,喬治商職,25.02633,121.5546403,come,0100000100
1067500240,6分鐘,10,捷運六張犁站(基隆路),25.023428,121.551345,come,0100000100
1105200140,9分鐘,11,和平高中,25.02024,121.54763,come,0100000100
1067200460,進站中,12,基隆長興街口,25.018512,121.5456371,come,0100000100
1067200760,進站中,13,臺大癌醫(基隆路),25.015713,121.5422472,come,0100000100
1060700060,進站中,14,臺灣科技大學,25.014151,121.540464,come,0100000100
1067300060,進站中,15,公館,25.012108,121.5380694,come,0100000100
1009000160,4分鐘,16,捷運公館站,25.015228,121.534086,come,0100000100
1067300200,6分鐘,17,台電大樓,25.018486,121.530566,come,0100000100
1064700300,7分鐘,18,捷運台電大樓站,25.02092,121.52803,come,0100000100
1064600300,9分鐘,19,羅斯福浦城街口,25.022311,121.5265002,come,0100000100
1008400300,9分鐘,20,羅斯福金門街口,25.024106,121.5246768,come,0100000100
1008400200,10分鐘,21,捷運古亭站(羅斯福),25.02678,121.52269,come,0100000100
1064200100,12分鐘,22,捷運古亭站(杭州),25.02886,121.5219375,come,0100000100
1007800060,17分鐘,23,南福板溪(南昌公園),25.02681,121.52053,come,0100000100
1007800300,18分鐘,24,牯嶺街,25.02814,121.51789,come,0100000100
1007600100,19分鐘,25,自來水西分處(牯嶺),25.029865,121.5166342,come,0100000100
1007500200,20分鐘,26,牯嶺街小劇場,25.03176,121.51518,come,0100000100
1006600560,23分鐘,27,建國中學(歷史博物館),25.031565,121.512879,come,0100000100
1007000260,26分鐘,28,植物園,25.03088,121.508711,come,0100000100
1006600360,27分鐘,29,和平中華路口,25.033191,121.50578,come,0100000100
1085100060,進站中,30,昆明街口,25.035341,121.5020082,come,0100000100
1085200360,3分鐘,31,捷運龍山寺站,25.03538,121.49971,come,0100000100
1085500160,進站中,32,中國時報,25.035454,121.4969752,come,0100000100
1088300140,4分鐘,33,華江派出所,25.034006,121.493016,come,0100000100
1085800140,5分鐘,34,大理高中,25.03162,121.490827,come,0100000100
1085800060,6分鐘,35,人壽一村,25.032073,121.4895177,come,0100000100
1085800360,6分鐘,36,華江站,25.032333,121.4889822,come,0100000100
1004801100,,1,捷運台大醫院站,25.041927,121.5163535,go,0100000200
1004100820,,2,臺北車站(青島),25.044844,121.517704,go,0100000200
1004100500,,3,行政院,25.046578,121.5202398,go,0100000200
1035100460,,4,臺北車站(鄭州),25.048809,121.5174713,go,0100000200
1034900100,,5,後車站,25.050269,121.5135627,go,0100000200
1035000300,,6,圓環(重慶),25.052844,121.514207,go,0100000200
1035600000,,7,民生重慶路口,25.056766,121.5138258,go,0100000200
1035800300,,8,涼州重慶路口,25.060669,121.5135455,go,0100000200
1035900000,,9,捷運大橋頭站,25.062704,121.513583,go,0100000200
1036300200,,10,昌吉重慶路口,25.065794,121.5137575,go,0100000200
1036900020,,11,民族重慶路口,25.068586,121.5143308,go,0100000200
1036400420,,12,蘭州國中,25.068512,121.5161869,go,0100000200
1036500001,,13,民族承德路口,25.069322,121.518574,go,0100000200
1036700360,,14,庫倫街,25.072013,121.5176838,go,0100000200
1036700060,,15,大龍峒保安宮,25.07209,121.515621,go,0100000200
1037300160,,16,酒泉重慶路口,25.072042,121.514591,go,0100000200
1037300260,,17,酒泉街,25.072185,121.5135209,go,0100000200
1037300060,,18,老師里,25.072183,121.511508,go,0100000200
1037200000,,19,污水處理廠,25.075572,121.5118974,go,0100000200
1116500300,,20,社子消防分隊,25.079411,121.5112234,go,0100000200
1116500400,,21,海光新村,25.080711,121.5107623,go,0100000200
1116501000,,22,葫蘆堵市場,25.083057,121.5102329,go,0100000200
1117300200,,23,葫蘆寺(葫蘆里),25.086022,121.5096458,go,0100000200
1117200100,,24,社子市場,25.087505,121.5090743,go,0100000200
1117200600,,25,社園里,25.089056,121.5079873,go,0100000200
1117200360,,26,社子派出所,25.089599,121.5064251,go,0100000200
1117200760,,27,永倫里(南),25.089467,121.503968,go,0100000200
1117200400,,28,社子國小,25.089904,121.5025776,go,0100000200
1117500100,,29,永倫里(延平),25.091148,121.500682,go,0100000200
1117500500,,30,洲美橋,25.092658,121.4992219,go,0100000200
1117400300,,31,中窟,25.09534,121.49649,go,0100000200
1117200900,,32,福安里,25.09636,121.49544,go,0100000200
1117201000,,33,福安區民活動中心,25.09717,121.49455,go,0100000200
1117200000,,34,下竹圍,25.0982,121.49333,go,0100000200
1117400500,,35,地藏禪寺,25.099749,121.4915352,go,0100000200
1117402000,,36,臨江園,25.10163,121.48928,go,0100000200
1117401900,,37,福安國中,25.10333,121.48729,go,0100000200
1117401600,,38,富洲里八段,25.10576,121.48446,go,0100000200
1117401360,,39,富安國小,25.10596,121.4833,go,0100000200
1117400960,,40,建安新村,25.10601,121.48116,go,0100000200
1117400160,,41,下溪沙尾,25.10597,121.47884,go,0100000200
1117400800,,42,威靈廟,25.105957,121.4764835,go,0100000200
1117401500,,43,富洲里九段,25.106223,121.4742815,go,0100000200
1117401100,,44,浮線,25.106667,121.4725864,go,0100000200
1117400400,,45,台北海大,25.108525,121.4706761,go,0100000200
1117401460,,46,富洲里,25.109244,121.468346,go,0100000200
1004801100,6分鐘,1,捷運台大醫院站,25.041927,121.5163535,come,0100000200
1004100820,6分鐘,2,臺北車站(青島),25.044844,121.517704,come,0100000200
1004100500,10分鐘,3,行政院,25.046578,121.5202398,come,0100000200
1035100460,16分鐘,4,臺北車站(鄭州),25.048809,121.5174713,come,0100000200
1034900100,19分鐘,5,後車站,25.050269,121.5135627,come,0100000200
1035000300,21分鐘,6,圓環(重慶),25.052844,121.514207,come,0100000200
1035600000,24分鐘,7,民生重慶路口,25.056766,121.5138258,come,0100000200
1035800300,25分鐘,8,涼州重慶路口,25.060669,121.5135455,come,0100000200
1035900000,26分鐘,9,捷運大橋頭站,25.062704,121.513583,come,0100000200
1036300200,29分鐘,10,昌吉重慶路口,25.065794,121.5137575,come,0100000200
1036900020,31分鐘,11,民族重慶路口,25.068586,121.5143308,come,0100000200
1036400420,32分鐘,12,蘭州國中,25.068512,121.5161869,come,0100000200
1036500001,33分鐘,13,民族承德路口,25.069322,121.518574,come,0100000200
1036700360,35分鐘,14,庫倫街,25.072013,121.5176838,come,0100000200
1036700060,37分鐘,15,大龍峒保安宮,25.07209,121.515621,come,0100000200
1037300160,38分鐘,16,酒泉重慶路口,25.072042,121.514591,come,0100000200
1037300260,41分鐘,17,酒泉街,25.072185,121.5135209,come,0100000200
1037300060,42分鐘,18,老師里,25.072183,121.511508,come,0100000200
1037200000,44分鐘,19,污水處理廠,25.075572,121.5118974,come,0100000200
1116500300,45分鐘,20,社子消防分隊,25.079411,121.5112234,come,0100000200
1116500400,46分鐘,21,海光新村,25.080711,121.5107623,come,0100000200
1116501000,47分鐘,22,葫蘆堵市場,25.083057,121.5102329,come,0100000200
1117300200,49分鐘,23,葫蘆寺(葫蘆里),25.086022,121.5096458,come,0100000200
1117200100,50分鐘,24,社子市場,25.087505,121.5090743,come,0100000200
1117200600,52分鐘,25,社園里,25.089056,121.5079873,come,0100000200
1117200360,54分鐘,26,社子派出所,25.089599,121.5064251,come,0100000200
1117200760,54分鐘,27,永倫里(南),25.089467,121.503968,come,0100000200
1117200400,55分鐘,28,社子國小,25.089904,121.5025776,come,0100000200
1117500100,57分鐘,29,永倫里(延平),25.091148,121.500682,come,0100000200
1117500500,58分鐘,30,洲美橋,25.092658,121.4992219,come,0100000200
1117400300,59分鐘,31,中窟,25.09534,121.49649,come,0100000200
1117200900,60分鐘,32,福安里,25.09636,121.49544,come,0100000200
1117201000,61分鐘,33,福安區民活動中心,25.09717,121.49455,come,0100000200
1117200000,62分鐘,34,下竹圍,25.0982,121.49333,come,0100000200
1117400500,62分鐘,35,地藏禪寺,25.099749,121.4915352,come,0100000200
1117402000,63分鐘,36,臨江園,25.10163,121.48928,come,0100000200
1117401900,63分鐘,37,福安國中,25.10333,121.48729,come,0100000200
1117401600,65分鐘,38,富洲里八段,25.10576,121.48446,come,0100000200
1117401360,65分鐘,39,富安國小,25.10596,121.4833,come,0100000200
1117400960,66分鐘,40,建安新村,25.10601,121.48116,come,0100000200
1117400160,66分鐘,41,下溪沙尾,25.10597,121.47884,come,0100000200
1117400800,67分鐘,42,威靈廟,25.105957,121.4764835,come,0100000200
1117401500,67分鐘,43,富洲里九段,25.106223,121.4742815,come,0100000200
1117401100,68分鐘,44,浮線,25.106667,121.4725864,come,0100000200
1117400400,68分鐘,45,台北海大,25.108525,121.4706761,come,0100000200
1117401460,70分鐘,46,富洲里,25.109244,121.468346,come,0100000200
1046800240,,1,捷運行天宮站(松江路),25.060535,121.5331063,go,0100000500
1048500040,,2,長春松江路口,25.055006,121.533011,go,0100000500
1045700260,,3,南京吉林路口,25.052112,121.5303325,go,0100000500
1045400160,,4,南京林森路口,25.052167,121.5257174,go,0100000500
1044400040,,5,中山市場,25.051264,121.5220211,go,0100000500
1004100540,,6,行政院,25.046484,121.5197596,go,0100000500
1004700340,,7,臺北車站(公園),25.043929,121.516775,go,0100000500
1004600040,,8,捷運台大醫院站,25.041935,121.5161481,go,0100000500
1004800040,,9,一女中(公園),25.038007,121.5149627,go,0100000500
1004800540,,10,市立大學附小,25.036462,121.5149763,go,0100000500
1006600640,,11,南門,25.033565,121.515375,go,0100000500
1007600240,,12,寧波重慶路口,25.028886,121.5153917,go,0100000500
1007100040,,13,重慶南路三段(中正橋),25.024804,121.516528,go,0100000500
2344300940,,14,捷運頂溪站,25.01443,121.5155769,go,0100000500
2344400140,,15,中興街口,25.011595,121.5147464,go,0100000500
2344500840,,16,樂華夜市,25.00839,121.51386,go,0100000500
2344500440,,17,永和路口,25.005687,121.5128613,go,0100000500
2357400140,,18,永安市場(永貞路),25.003661,121.513414,go,0100000500
2357400040,,19,中安街,25.002081,121.512357,go,0100000500
2357400740,,20,安平派出所,25.000769,121.511211,go,0100000500
2357600140,,21,安平路,24.997722,121.511791,go,0100000500
2357600260,,22,宜安路,24.997295,121.5112044,go,0100000500
2357600560,,23,華泰新城(宜安路),24.998949,121.509048,go,0100000500
2357500760,,24,雙和里,24.99973,121.5068521,go,0100000500
2357500660,,25,南山高中,24.999775,121.505547,go,0100000500
2357500060,,26,中和派出所,24.999855,121.5028195,go,0100000500
2357500260,,27,中和廟口,25.000814,121.5009077,go,0100000500
2357500100,,28,中和農會(中和路),25.001862,121.499868,go,0100000500
2355800060,,29,一江新村,25.002636,121.498247,go,0100000500
2355701060,,30,捷運中和站(中山路),25.002436,121.496157,go,0100000500
2355700760,,31,家美工業區,25.00229,121.493465,go,0100000500
2355700360,,32,中和保養廠,25.003079,121.491807,go,0100000500
1045900300,16分鐘,33,長春松江路口,25.054536,121.5331386,go,0100000500
1048300320,20分鐘,34,民生松江路口,25.057791,121.535046,go,0100000500
1047800020,21分鐘,35,合江街口,25.057724,121.5381394,go,0100000500
1048000220,進站中,36,臺北大學(臺北校區),25.05774,121.54274,go,0100000500
1047600500,4分鐘,37,捷運中山國中站,25.060855,121.544405,go,0100000500
1047600460,6分鐘,38,民權龍江路口,25.062395,121.5412752,go,0100000500
1047700060,7分鐘,39,民權建國路口,25.062483,121.53746,go,0100000500
1048300060,10分鐘,40,民權松江路口,25.062524,121.5334388,go,0100000500
1046800240,進站中,1,捷運行天宮站(松江路),25.060535,121.5331063,come,0100000500
1048500040,3分鐘,2,長春松江路口,25.055006,121.533011,come,0100000500
1045700260,7分鐘,3,南京吉林路口,25.052112,121.5303325,come,0100000500
1045400160,8分鐘,4,南京林森路口,25.052167,121.5257174,come,0100000500
1044400040,12分鐘,5,中山市場,25.051264,121.5220211,come,0100000500
1004100540,進站中,6,行政院,25.046484,121.5197596,come,0100000500
1004700340,4分鐘,7,臺北車站(公園),25.043929,121.516775,come,0100000500
1004600040,6分鐘,8,捷運台大醫院站,25.041935,121.5161481,come,0100000500
1004800040,8分鐘,9,一女中(公園),25.038007,121.5149627,come,0100000500
1004800540,9分鐘,10,市立大學附小,25.036462,121.5149763,come,0100000500
1006600640,11分鐘,11,南門,25.033565,121.515375,come,0100000500
1007600240,16分鐘,12,寧波重慶路口,25.028886,121.5153917,come,0100000500
1007100040,19分鐘,13,重慶南路三段(中正橋),25.024804,121.516528,come,0100000500
2344300940,23分鐘,14,捷運頂溪站,25.01443,121.5155769,come,0100000500
2344400140,25分鐘,15,中興街口,25.011595,121.5147464,come,0100000500
2344500840,27分鐘,16,樂華夜市,25.00839,121.51386,come,0100000500
2344500440,29分鐘,17,永和路口,25.005687,121.5128613,come,0100000500
2357400140,進站中,18,永安市場(永貞路),25.003661,121.513414,come,0100000500
2357400040,進站中,19,中安街,25.002081,121.512357,come,0100000500
2357400740,3分鐘,20,安平派出所,25.000769,121.511211,come,0100000500
2357600140,5分鐘,21,安平路,24.997722,121.511791,come,0100000500
2357600260,5分鐘,22,宜安路,24.997295,121.5112044,come,0100000500
2357600560,6分鐘,23,華泰新城(宜安路),24.998949,121.509048,come,0100000500
2357500760,7分鐘,24,雙和里,24.99973,121.5068521,come,0100000500
2357500660,8分鐘,25,南山高中,24.999775,121.505547,come,0100000500
2357500060,9分鐘,26,中和派出所,24.999855,121.5028195,come,0100000500
2357500260,10分鐘,27,中和廟口,25.000814,121.5009077,come,0100000500
2357500100,11分鐘,28,中和農會(中和路),25.001862,121.499868,come,0100000500
2355800060,14分鐘,29,一江新村,25.002636,121.498247,come,0100000500
2355701060,15分鐘,30,捷運中和站(中山路),25.002436,121.496157,come,0100000500
2355700760,15分鐘,31,家美工業區,25.00229,121.493465,come,0100000500
2355700360,17分鐘,32,中和保養廠,25.003079,121.491807,come,0100000500
1045900300,,33,長春松江路口,25.054536,121.5331386,come,0100000500
1048300320,,34,民生松江路口,25.057791,121.535046,come,0100000500
1047800020,,35,合江街口,25.057724,121.5381394,come,0100000500
1048000220,,36,臺北大學(臺北校區),25.05774,121.54274,come,0100000500
1047600500,,37,捷運中山國中站,25.060855,121.544405,come,0100000500
1047600460,,38,民權龍江路口,25.062395,121.5412752,come,0100000500
1047700060,,39,民權建國路口,25.062483,121.53746,come,0100000500
1048300060,,40,民權松江路口,25.062524,121.5334388,come,0100000500
2357700120,,1,中和教會,24.992776,121.509186,go,0400000800
2358200740,,2,景新街,24.989796,121.512387,go,0400000800
2356900040,,3,三介廟,24.987999,121.5132354,go,0400000800
2315901140,,4,新和國小,24.98554,121.516668,go,0400000800
2315900840,,5,輕軌新和國小站(水工大樓),24.983114,121.517819,go,0400000800
2315900540,,6,永平里,24.981678,121.5175586,go,0400000800
2315901040,,7,陽光運動公園(新店花市),24.977353,121.5165771,go,0400000800
2315900640,,8,安和路二段,24.975951,121.517269,go,0400000800
2315900240,,9,石頭厝,24.974109,121.5188677,go,0400000800
2315900740,,10,輕軌陽光運動公園站,24.972781,121.5195205,go,0400000800
2315900340,,11,光華街口,24.97032,121.51876,go,0400000800
2315900040,,12,十四份,24.96923,121.51843,go,0400000800
2315900140,,13,及人中學,24.967302,121.5177866,go,0400000800
2315900441,,14,輕軌安康站,24.96515,121.51705,go,0400000800
2315300820,,15,光華新村(安康路),24.963936,121.517942,go,0400000800
2315301220,,16,安華路口,24.963705,121.5213653,go,0400000800
2315300120,,17,下城社區,24.963473,121.5235251,go,0400000800
2315300020,,18,胡璉故居紀念館,24.962917,121.52598,go,0400000800
2315302340,,19,頂城,24.961725,121.528339,go,0400000800
2315300240,,20,大坪頂,24.961041,121.530152,go,0400000800
2315302540,,21,溪頭,24.960256,121.532361,go,0400000800
2314701600,,22,碧潭橋頭,24.963158,121.53982,go,0400000800
2314702000,,23,檳榔路,24.965001,121.5405875,go,0400000800
2314700900,,24,捷運新店區公所站(北新),24.967638,121.5416161,go,0400000800
2314600022,,25,中正路,24.969823,121.54459,go,0400000800
2314600061,,26,中興中正路口,24.96884,121.54556,go,0400000800
2314600440,,27,五峰國中,24.966834,121.544338,go,0400000800
2314700040,,28,中興路一段,24.963848,121.5421083,go,0400000800
2314601340,,29,舊郵政館,24.961682,121.540751,go,0400000800
2314700841,,30,捷運新店站(新店路),24.958392,121.53755,go,0400000800
2357700120,26分鐘,1,中和教會,24.992776,121.509186,come,0400000800
2358200740,30分鐘,2,景新街,24.989796,121.512387,come,0400000800
2356900040,32分鐘,3,三介廟,24.987999,121.5132354,come,0400000800
2315901140,34分鐘,4,新和國小,24.98554,121.516668,come,0400000800
2315900840,35分鐘,5,輕軌新和國小站(水工大樓),24.983114,121.517819,come,0400000800
2315900540,36分鐘,6,永平里,24.981678,121.5175586,come,0400000800
2315901040,38分鐘,7,陽光運動公園(新店花市),24.977353,121.5165771,come,0400000800
2315900640,39分鐘,8,安和路二段,24.975951,121.517269,come,0400000800
2315900240,40分鐘,9,石頭厝,24.974109,121.5188677,come,0400000800
2315900740,41分鐘,10,輕軌陽光運動公園站,24.972781,121.5195205,come,0400000800
2315900340,42分鐘,11,光華街口,24.97032,121.51876,come,0400000800
2315900040,42分鐘,12,十四份,24.96923,121.51843,come,0400000800
2315900140,43分鐘,13,及人中學,24.967302,121.5177866,come,0400000800
2315900441,44分鐘,14,輕軌安康站,24.96515,121.51705,come,0400000800
2315300820,45分鐘,15,光華新村(安康路),24.963936,121.517942,come,0400000800
2315301220,46分鐘,16,安華路口,24.963705,121.5213653,come,0400000800
2315300120,47分鐘,17,下城社區,24.963473,121.5235251,come,0400000800
2315300020,47分鐘,18,胡璉故居紀念館,24.962917,121.52598,come,0400000800
2315302340,48分鐘,19,頂城,24.961725,121.528339,come,0400000800
2315300240,49分鐘,20,大坪頂,24.961041,121.530152,come,0400000800
2315302540,50分鐘,21,溪頭,24.960256,121.532361,come,0400000800
2314701600,53分鐘,22,碧潭橋頭,24.963158,121.53982,come,0400000800
2314702000,54分鐘,23,檳榔路,24.965001,121.5405875,come,0400000800
2314700900,55分鐘,24,捷運新店區公所站(北新),24.967638,121.5416161,come,0400000800
2314600022,57分鐘,25,中正路,24.969823,121.54459,come,0400000800
2314600061,58分鐘,26,中興中正路口,24.96884,121.54556,come,0400000800
2314600440,進站中,27,五峰國中,24.966834,121.544338,come,0400000800
2314700040,進站中,28,中興路一段,24.963848,121.5421083,come,0400000800
2314601340,進站中,29,舊郵政館,24.961682,121.540751,come,0400000800
2314700841,4分鐘,30,捷運新店站(新店路),24.958392,121.53755,come,0400000800
1084900400,,1,祖師廟(康定),25.039681,121.5019792,go,0100000900
1085000220,,2,長沙街,25.040609,121.5056466,go,0100000900
1084600300,,3,捷運西門站,25.04173,121.5082859,go,0100000900
1004200200,,4,中華路北站,25.045696,121.5093807,go,0100000900
1034100601,,5,捷運北門站,25.050609,121.5106101,go,0100000900
1034300400,,6,南京西路口(塔城),25.052852,121.5104624,go,0100000900
1034600200,,7,南京西路口(鈕釦街),25.054427,121.5117973,go,0100000900
1034600000,,8,民生西路口(大稻埕碼頭),25.057441,121.5116168,go,0100000900
1034800100,,9,保安街口,25.05984,121.5114724,go,0100000900
1035800320,,10,涼州重慶路口,25.060697,121.512933,go,0100000900
1035900000,,11,捷運大橋頭站,25.062704,121.513583,go,0100000900
1036300200,,12,昌吉重慶路口,25.065794,121.5137575,go,0100000900
1036900020,,13,民族重慶路口,25.068586,121.5143308,go,0100000900
1036400420,,14,蘭州國中,25.068512,121.5161869,go,0100000900
1036500001,,15,民族承德路口,25.069322,121.518574,go,0100000900
1036700360,,16,庫倫街,25.072013,121.5176838,go,0100000900
1036700060,,17,大龍峒保安宮,25.07209,121.515621,go,0100000900
1037300160,,18,酒泉重慶路口,25.072042,121.514591,go,0100000900
1037300260,,19,酒泉街,25.072185,121.5135209,go,0100000900
1037300060,,20,老師里,25.072183,121.511508,go,0100000900
1037200000,,21,污水處理廠,25.075572,121.5118974,go,0100000900
1116500300,,22,社子消防分隊,25.079411,121.5112234,go,0100000900
1116500400,,23,海光新村,25.080711,121.5107623,go,0100000900
1116501000,,24,葫蘆堵市場,25.083057,121.5102329,go,0100000900
1117300200,,25,葫蘆寺(葫蘆里),25.086022,121.5096458,go,0100000900
1117200100,,26,社子市場,25.087505,121.5090743,go,0100000900
1117200600,,27,社園里,25.089056,121.5079873,go,0100000900
1117200360,,28,社子派出所,25.089599,121.5064251,go,0100000900
1117200760,,29,永倫里(南),25.089467,121.503968,go,0100000900
1117200400,,30,社子國小,25.089904,121.5025776,go,0100000900
1084900400,9分鐘,1,祖師廟(康定),25.039681,121.5019792,come,0100000900
1085000220,12分鐘,2,長沙街,25.040609,121.5056466,come,0100000900
1084600300,13分鐘,3,捷運西門站,25.04173,121.5082859,come,0100000900
1004200200,16分鐘,4,中華路北站,25.045696,121.5093807,come,0100000900
1034100601,3分鐘,5,捷運北門站,25.050609,121.5106101,come,0100000900
1034300400,5分鐘,6,南京西路口(塔城),25.052852,121.5104624,come,0100000900
1034600200,7分鐘,7,南京西路口(鈕釦街),25.054427,121.5117973,come,0100000900
1034600000,9分鐘,8,民生西路口(大稻埕碼頭),25.057441,121.5116168,come,0100000900
1034800100,11分鐘,9,保安街口,25.05984,121.5114724,come,0100000900
1035800320,12分鐘,10,涼州重慶路口,25.060697,121.512933,come,0100000900
1035900000,14分鐘,11,捷運大橋頭站,25.062704,121.513583,come,0100000900
1036300200,15分鐘,12,昌吉重慶路口,25.065794,121.5137575,come,0100000900
1036900020,17分鐘,13,民族重慶路口,25.068586,121.5143308,come,0100000900
1036400420,19分鐘,14,蘭州國中,25.068512,121.5161869,come,0100000900
1036500001,19分鐘,15,民族承德路口,25.069322,121.518574,come,0100000900
1036700360,進站中,16,庫倫街,25.072013,121.5176838,come,0100000900
1036700060,進站中,17,大龍峒保安宮,25.07209,121.515621,come,0100000900
1037300160,3分鐘,18,酒泉重慶路口,25.072042,121.514591,come,0100000900
1037300260,6分鐘,19,酒泉街,25.072185,121.5135209,come,0100000900
1037300060,7分鐘,20,老師里,25.072183,121.511508,come,0100000900
1037200000,8分鐘,21,污水處理廠,25.075572,121.5118974,come,0100000900
1116500300,9分鐘,22,社子消防分隊,25.079411,121.5112234,come,0100000900
1116500400,10分鐘,23,海光新村,25.080711,121.5107623,come,0100000900
1116501000,11分鐘,24,葫蘆堵市場,25.083057,121.5102329,come,0100000900
1117300200,13分鐘,25,葫蘆寺(葫蘆里),25.086022,121.5096458,come,0100000900
1117200100,15分鐘,26,社子市場,25.087505,121.5090743,come,0100000900
1117200600,16分鐘,27,社園里,25.089056,121.5079873,come,0100000900
1117200360,進站中,28,社子派出所,25.089599,121.5064251,come,0100000900
1117200760,進站中,29,永倫里(南),25.089467,121.503968,come,0100000900
1117200400,3分鐘,30,社子國小,25.089904,121.5025776,come,0100000900
1059100040,,1,民生國中,25.059661,121.5679233,go,0100001200
1058900160,,2,新東街口,25.059272,121.5663967,go,0100001200
1057300060,,3,民生社區活動中心,25.058808,121.5611445,go,0100001200
1057600260,,4,聯合二村,25.058624,121.5589234,go,0100001200
1057200060,,5,介壽國中,25.058415,121.5560444,go,0100001200
1057400060,,6,公教住宅,25.058131,121.5526273,go,0100001200
1054600060,,7,民生敦化路口,25.057851,121.5468517,go,0100001200
1048000340,,8,興安華城,25.05685,121.5439555,go,0100001200
1047900160,,9,長春市場,25.054803,121.5416683,go,0100001200
1047900060,,10,臺北大學(臺北校區),25.05488,121.5386725,go,0100001200
1048500160,,11,長春國小,25.054904,121.534178,go,0100001200
1045800140,,12,松江長春路口,25.054176,121.5329348,go,0100001200
1045700260,,13,南京吉林路口,25.052112,121.5303325,go,0100001200
1045400160,,14,南京林森路口,25.052167,121.5257174,go,0100001200
1035200160,,15,捷運中山站(志仁高中),25.052867,121.519866,go,0100001200
1034900160,,16,後車站,25.051433,121.5151374,go,0100001200
1034100260,,17,延平一站(長安),25.0519,121.513,go,0100001200
1034100640,,18,聯合醫院中興院區(塔城),25.051335,121.5103985,go,0100001200
1034100140,,19,捷運北門站,25.049002,121.510134,go,0100001200
1084300040,,20,中華路北站,25.045511,121.5091441,go,0100001200
1084400340,,21,捷運西門站,25.042516,121.5082667,go,0100001200
1085000040,,22,小南門,25.037868,121.5069037,go,0100001200
1006500140,,23,聯合醫院和平院區,25.036493,121.5065075,go,0100001200
1086200040,,24,大埔街,25.032074,121.5044162,go,0100001200
1088000140,,25,廈安里,25.02966,121.50438,go,0100001200
1088000040,,26,南機場公寓,25.028384,121.5054653,go,0100001200
1088100040,,27,中華南海路口,25.027343,121.5064379,go,0100001200
1088100240,,28,國興路口,25.025621,121.508316,go,0100001200
1088200020,,29,古亭國中,25.024664,121.509833,go,0100001200
1007200140,,30,萬華醫院,25.02391,121.50982,go,0100001200
1087700000,,31,國興社區,25.023497,121.5084584,go,0100001200
1088100100,,32,青年公園(國興),25.024607,121.507953,go,0100001200
1087600140,,33,青年公園(青年),25.025963,121.5060238,go,0100001200
1087600240,,34,青年社區,25.025473,121.504417,go,0100001200
1087600040,,35,中正新城,25.0248,121.5031839,go,0100001200
1087500040,,36,青年路,25.022481,121.502584,go,0100001200
1087400060,,37,青年路派出所,25.022046,121.5020378,go,0100001200
1087300060,,38,光仁國小,25.021416,121.5006187,go,0100001200
1087200041,,39,果菜市場,25.01942,121.497234,go,0100001200
1087200140,,40,華中河濱公園,25.01714,121.49565,go,0100001200
1059100040,4分鐘,1,民生國中,25.059661,121.5679233,come,0100001200
1058900160,6分鐘,2,新東街口,25.059272,121.5663967,come,0100001200
1057300060,8分鐘,3,民生社區活動中心,25.058808,121.5611445,come,0100001200
1057600260,9分鐘,4,聯合二村,25.058624,121.5589234,come,0100001200
1057200060,進站中,5,介壽國中,25.058415,121.5560444,come,0100001200
1057400060,進站中,6,公教住宅,25.058131,121.5526273,come,0100001200
1054600060,進站中,7,民生敦化路口,25.057851,121.5468517,come,0100001200
1048000340,5分鐘,8,興安華城,25.05685,121.5439555,come,0100001200
1047900160,6分鐘,9,長春市場,25.054803,121.5416683,come,0100001200
1047900060,8分鐘,10,臺北大學(臺北校區),25.05488,121.5386725,come,0100001200
1048500160,10分鐘,11,長春國小,25.054904,121.534178,come,0100001200
1045800140,12分鐘,12,松江長春路口,25.054176,121.5329348,come,0100001200
1045700260,15分鐘,13,南京吉林路口,25.052112,121.5303325,come,0100001200
1045400160,17分鐘,14,南京林森路口,25.052167,121.5257174,come,0100001200
1035200160,21分鐘,15,捷運中山站(志仁高中),25.052867,121.519866,come,0100001200
1034900160,3分鐘,16,後車站,25.051433,121.5151374,come,0100001200
1034100260,4分鐘,17,延平一站(長安),25.0519,121.513,come,0100001200
1034100640,6分鐘,18,聯合醫院中興院區(塔城),25.051335,121.5103985,come,0100001200
1034100140,8分鐘,19,捷運北門站,25.049002,121.510134,come,0100001200
1084300040,11分鐘,20,中華路北站,25.045511,121.5091441,come,0100001200
1084400340,12分鐘,21,捷運西門站,25.042516,121.5082667,come,0100001200
1085000040,進站中,22,小南門,25.037868,121.5069037,come,0100001200
1006500140,進站中,23,聯合醫院和平院區,25.036493,121.5065075,come,0100001200
1086200040,5分鐘,24,大埔街,25.032074,121.5044162,come,0100001200
1088000140,7分鐘,25,廈安里,25.02966,121.50438,come,0100001200
1088000040,8分鐘,26,南機場公寓,25.028384,121.5054653,come,0100001200
1088100040,9分鐘,27,中華南海路口,25.027343,121.5064379,come,0100001200
1088100240,10分鐘,28,國興路口,25.025621,121.508316,come,0100001200
1088200020,11分鐘,29,古亭國中,25.024664,121.509833,come,0100001200
1007200140,12分鐘,30,萬華醫院,25.02391,121.50982,come,0100001200
1087700000,13分鐘,31,國興社區,25.023497,121.5084584,come,0100001200
1088100100,14分鐘,32,青年公園(國興),25.024607,121.507953,come,0100001200
1087600140,15分鐘,33,青年公園(青年),25.025963,121.5060238,come,0100001200
1087600240,15分鐘,34,青年社區,25.025473,121.504417,come,0100001200
1087600040,16分鐘,35,中正新城,25.0248,121.5031839,come,0100001200
1087500040,進站中,36,青年路,25.022481,121.502584,come,0100001200
1087400060,進站中,37,青年路派出所,25.022046,121.5020378,come,0100001200
1087300060,進站中,38,光仁國小,25.021416,121.5006187,come,0100001200
1087200041,4分鐘,39,果菜市場,25.01942,121.497234,come,0100001200
1087200140,6分鐘,40,華中河濱公園,25.01714,121.49565,come,0100001200
1004100540,,1,行政院,25.046484,121.5197596,go,0100001400
1004100761,,2,臺北車站(忠孝),25.047409,121.5139852,go,0100001400
2414300800,,3,重安街口,25.056951,121.4941915,go,0100001400
2414300200,,4,中正南路,25.059629,121.494168,go,0100001400
2414300160,,5,中山藝術公園,25.060541,121.492298,go,0100001400
2414100860,,6,捷運菜寮站,25.059479,121.490697,go,0100001400
2414400660,,7,菜寮(重新路),25.057446,121.4878276,go,0100001400
2416101200,,8,菜寮(重陽路),25.057718,121.4867994,go,0100001400
2416100200,,9,三重稅捐分處,25.060408,121.4869182,go,0100001400
2416200260,,10,三民街,25.06343,121.485248,go,0100001400
2416100760,,11,東海中學,25.065509,121.482592,go,0100001400
2416100420,,12,忠孝三民街口,25.06698,121.481556,go,0100001400
2416200360,,13,三重商工(中正北路),25.068996,121.479868,go,0100001400
2415700460,,14,博愛新村,25.069522,121.4776879,go,0100001400
2415700360,,15,仙公廟,25.07155,121.4737968,go,0100001400
2415700660,,16,穀保家商,25.072137,121.47112,go,0100001400
2487200160,,17,褒仔寮,25.072575,121.4683812,go,0100001400
2487400000,,18,大同新村,25.074202,121.46775,go,0100001400
2475000500,,19,永安里,25.077839,121.468953,go,0100001400
2475000160,,20,九芎街口,25.078631,121.468493,go,0100001400
2475000200,,21,九芎廟,25.079227,121.466562,go,0100001400
2475000040,,22,九芎街,25.07899,121.46489,go,0100001400
2476400100,,23,延平里,25.07973,121.4632078,go,0100001400
2476300300,,24,忠義廟,25.081292,121.461196,go,0100001400
2476200300,,25,長安街一,25.08286,121.45954,go,0100001400
2476100000,,26,永康公園,25.084877,121.4581955,go,0100001400
2476100100,,27,成功國小,25.086317,121.4575421,go,0100001400
2476100200,,28,長安街,25.087758,121.4573378,go,0100001400
2476700020,,29,永樂街,25.088157,121.458516,go,0100001400
2476500000,,30,永平市場,25.090129,121.459668,go,0100001400
2476500500,,31,長榮路,25.09233,121.4606387,go,0100001400
2476000540,,32,捷運蘆洲站,25.09079,121.465126,go,0100001400
2476000140,,33,民族路口,25.089515,121.4681391,go,0100001400
2475900640,,34,王爺廟口,25.08814,121.46664,go,0100001400
2475900940,,35,空中大學(中正路),25.086711,121.4677982,go,0100001400
2475800040,,36,中原公寓,25.085747,121.4684977,go,0100001400
2475700540,,37,蘆洲國小,25.08302,121.470464,go,0100001400
2475600860,,38,蘆洲監理站,25.081456,121.4714493,go,0100001400
2475600340,,39,和平路口,25.07953,121.4694739,go,0100001400
2475600620,,40,蘆洲站,25.078535,121.4691805,go,0100001400
1004100540,進站中,1,行政院,25.046484,121.5197596,come,0100001400
1004100761,8分鐘,2,臺北車站(忠孝),25.047409,121.5139852,come,0100001400
2414300800,3分鐘,3,重安街口,25.056951,121.4941915,come,0100001400
2414300200,4分鐘,4,中正南路,25.059629,121.494168,come,0100001400
2414300160,5分鐘,5,中山藝術公園,25.060541,121.492298,come,0100001400
2414100860,進站中,6,捷運菜寮站,25.059479,121.490697,come,0100001400
2414400660,進站中,7,菜寮(重新路),25.057446,121.4878276,come,0100001400
2416101200,3分鐘,8,菜寮(重陽路),25.057718,121.4867994,come,0100001400
2416100200,4分鐘,9,三重稅捐分處,25.060408,121.4869182,come,0100001400
2416200260,6分鐘,10,三民街,25.06343,121.485248,come,0100001400
2416100760,7分鐘,11,東海中學,25.065509,121.482592,come,0100001400
2416100420,8分鐘,12,忠孝三民街口,25.06698,121.481556,come,0100001400
2416200360,10分鐘,13,三重商工(中正北路),25.068996,121.479868,come,0100001400
2415700460,11分鐘,14,博愛新村,25.069522,121.4776879,come,0100001400
2415700360,進站中,15,仙公廟,25.07155,121.4737968,come,0100001400
2415700660,進站中,16,穀保家商,25.072137,121.47112,come,0100001400
2487200160,進站中,17,褒仔寮,25.072575,121.4683812,come,0100001400
2487400000,進站中,18,大同新村,25.074202,121.46775,come,0100001400
2475000500,4分鐘,19,永安里,25.077839,121.468953,come,0100001400
2475000160,5分鐘,20,九芎街口,25.078631,121.468493,come,0100001400
2475000200,7分鐘,21,九芎廟,25.079227,121.466562,come,0100001400
2475000040,7分鐘,22,九芎街,25.07899,121.46489,come,0100001400
2476400100,9分鐘,23,延平里,25.07973,121.4632078,come,0100001400
2476300300,10分鐘,24,忠義廟,25.081292,121.461196,come,0100001400
2476200300,11分鐘,25,長安街一,25.08286,121.45954,come,0100001400
2476100000,13分鐘,26,永康公園,25.084877,121.4581955,come,0100001400
2476100100,14分鐘,27,成功國小,25.086317,121.4575421,come,0100001400
2476100200,進站中,28,長安街,25.087758,121.4573378,come,0100001400
2476700020,進站中,29,永樂街,25.088157,121.458516,come,0100001400
2476500000,進站中,30,永平市場,25.090129,121.459668,come,0100001400
2476500500,進站中,31,長榮路,25.09233,121.4606387,come,0100001400
2476000540,3分鐘,32,捷運蘆洲站,25.09079,121.465126,come,0100001400
2476000140,5分鐘,33,民族路口,25.089515,121.4681391,come,0100001400
2475900640,6分鐘,34,王爺廟口,25.08814,121.46664,come,0100001400
2475900940,8分鐘,35,空中大學(中正路),25.086711,121.4677982,come,0100001400
2475800040,8分鐘,36,中原公寓,25.085747,121.4684977,come,0100001400
2475700540,10分鐘,37,蘆洲國小,25.08302,121.470464,come,0100001400
2475600860,進站中,38,蘆洲監理站,25.081456,121.4714493,come,0100001400
2475600340,進站中,39,和平路口,25.07953,121.4694739,come,0100001400
2475600620,進站中,40,蘆洲站,25.078535,121.4691805,come,0100001400
1105700060,,1,黎忠市場,25.019475,121.557953,go,0100001800
1105600060,,2,富陽街口,25.021127,121.55616,go,0100001800
1067400060,,3,捷運六張犁站(和平),25.022926,121.554225,go,0100001800
1067500161,,4,和平安和路口,25.024622,121.5513507,go,0100001800
1066900060,,5,臥龍街,25.024707,121.5474978,go,0100001800
1067000160,,6,國立臺北教育大學,25.024826,121.5448151,go,0100001800
1066400460,,7,復興南路口,25.025103,121.5423761,go,0100001800
1066400160,,8,國北教大實小,25.02532,121.54065,go,0100001800
1066400660,,9,龍門國中(和平),25.025527,121.5391542,go,0100001800
1066200060,,10,大安森林公園,25.025928,121.5363198,go,0100001800
1064400460,,11,溫州街口,25.026354,121.5326938,go,0100001800
1064400360,,12,師大綜合大樓,25.026622,121.53006,go,0100001800
1064400260,,13,師大,25.026738,121.5277134,go,0100001800
1064300261,,14,捷運古亭站(和平),25.027172,121.523152,go,0100001800
1009300500,,15,羅斯福潮州街口,25.02922,121.52096,go,0100001800
1009300100,,16,捷運中正紀念堂站(羅斯福),25.032297,121.518848,go,0100001800
1004800000,,17,一女中(公園),25.036828,121.5151365,go,0100001800
1004801100,,18,捷運台大醫院站,25.041927,121.5163535,go,0100001800
1004700200,,19,博物館(館前),25.044177,121.5150573,go,0100001800
1004700560,,20,臺北車站(開封),25.046027,121.513879,go,0100001800
1000500042,,21,重慶南路一段,25.044432,121.513114,go,0100001800
1004500060,,22,二二八和平公園,25.042368,121.5125439,go,0100001800
1000900060,,23,衡陽路,25.04227,121.51021,go,0100001800
1084400160,,24,西門市場(成都),25.042689,121.5066535,go,0100001800
1084600140,,25,西寧南路,25.03991,121.50604,go,0100001800
1084900160,,26,桂林昆明街口,25.0381,121.5043,go,0100001800
1084800160,,27,桂林路,25.038472,121.5008151,go,0100001800
1085300060,,28,萬華分局,25.03861,121.4980643,go,0100001800
1085400040,,29,龍山國小,25.03611,121.49478,go,0100001800
1088300140,,30,華江派出所,25.034006,121.493016,go,0100001800
1085700070,,31,力霸社區,25.034167,121.490111,go,0100001800
1085800340,,32,華江站,25.032439,121.4888933,go,0100001800
1067600520,37分鐘,33,黎忠市場,25.01926,121.5578044,go,0100001800
1067600320,38分鐘,34,捷運麟光站,25.01825,121.55853,go,0100001800
1105700060,39分鐘,1,黎忠市場,25.019475,121.557953,come,0100001800
1105600060,進站中,2,富陽街口,25.021127,121.55616,come,0100001800
1067400060,進站中,3,捷運六張犁站(和平),25.022926,121.554225,come,0100001800
1067500161,5分鐘,4,和平安和路口,25.024622,121.5513507,come,0100001800
1066900060,7分鐘,5,臥龍街,25.024707,121.5474978,come,0100001800
1067000160,9分鐘,6,國立臺北教育大學,25.024826,121.5448151,come,0100001800
1066400460,12分鐘,7,復興南路口,25.025103,121.5423761,come,0100001800
1066400160,14分鐘,8,國北教大實小,25.02532,121.54065,come,0100001800
1066400660,15分鐘,9,龍門國中(和平),25.025527,121.5391542,come,0100001800
1066200060,17分鐘,10,大安森林公園,25.025928,121.5363198,come,0100001800
1064400460,進站中,11,溫州街口,25.026354,121.5326938,come,0100001800
1064400360,進站中,12,師大綜合大樓,25.026622,121.53006,come,0100001800
1064400260,3分鐘,13,師大,25.026738,121.5277134,come,0100001800
1064300261,6分鐘,14,捷運古亭站(和平),25.027172,121.523152,come,0100001800
1009300500,8分鐘,15,羅斯福潮州街口,25.02922,121.52096,come,0100001800
1009300100,8分鐘,16,捷運中正紀念堂站(羅斯福),25.032297,121.518848,come,0100001800
1004800000,13分鐘,17,一女中(公園),25.036828,121.5151365,come,0100001800
1004801100,16分鐘,18,捷運台大醫院站,25.041927,121.5163535,come,0100001800
1004700200,19分鐘,19,博物館(館前),25.044177,121.5150573,come,0100001800
1004700560,21分鐘,20,臺北車站(開封),25.046027,121.513879,come,0100001800
1000500042,24分鐘,21,重慶南路一段,25.044432,121.513114,come,0100001800
1004500060,26分鐘,22,二二八和平公園,25.042368,121.5125439,come,0100001800
1000900060,27分鐘,23,衡陽路,25.04227,121.51021,come,0100001800
1084400160,29分鐘,24,西門市場(成都),25.042689,121.5066535,come,0100001800
1084600140,32分鐘,25,西寧南路,25.03991,121.50604,come,0100001800
1084900160,35分鐘,26,桂林昆明街口,25.0381,121.5043,come,0100001800
1084800160,37分鐘,27,桂林路,25.038472,121.5008151,come,0100001800
1085300060,38分鐘,28,萬華分局,25.03861,121.4980643,come,0100001800
1085400040,41分鐘,29,龍山國小,25.03611,121.49478,come,0100001800
1088300140,進站中,30,華江派出所,25.034006,121.493016,come,0100001800
1085700070,3分鐘,31,力霸社區,25.034167,121.490111,come,0100001800
1085800340,3分鐘,32,華江站,25.032439,121.4888933,come,0100001800
1067600520,,33,黎忠市場,25.01926,121.5578044,come,0100001800
1067600320,,34,捷運麟光站,25.01825,121.55853,come,0100001800
1088100300,,1,國興路口一,25.024585,121.5088101,go,0100002000
1006700300,,2,國興路口,25.025757,121.508379,go,0100002000
1006700100,,3,中華南海路口,25.027236,121.5066611,go,0100002000
1006900000,,4,南機場公寓,25.028591,121.5054077,go,0100002000
1006800300,,5,廈安里,25.030697,121.5041681,go,0100002000
1006800000,,6,大埔街,25.032684,121.504945,go,0100002000
1006500101,,7,聯合醫院和平院區,25.0357,121.506607,go,0100002000
1004200000,,8,小南門,25.038213,121.5073666,go,0100002000
1004200400,,9,捷運西門站,25.040946,121.5082192,go,0100002000
1004300220,,10,寶慶路,25.041491,121.509834,go,0100002000
1004500200,,11,衡陽路口,25.042018,121.5132,go,0100002000
1004600220,,12,博物館(襄陽),25.043339,121.5157262,go,0100002000
1004600040,,13,捷運台大醫院站,25.041935,121.5161481,go,0100002000
1004800920,,14,中正紀念堂,25.037153,121.520771,go,0100002000
1004800820,,15,信義杭州路口,25.0357,121.5238361,go,0100002000
1064100120,,16,捷運東門站,25.034134,121.5269937,go,0100002000
1065000320,,17,信義永康街口(捷運東門站),25.033693,121.529727,go,0100002000
1006100020,,18,信義新生路口,25.03353,121.5323283,go,0100002000
1065600420,,19,捷運大安森林公園站,25.033496,121.5356316,go,0100002000
1065800120,,20,信義建國路口,25.033441,121.539045,go,0100002000
1065800420,,21,捷運大安站(信義),25.033323,121.5432319,go,0100002000
1068300220,,22,信義大安路口,25.0332,121.5456,go,0100002000
1068100120,,23,信義敦化路口,25.033262,121.548298,go,0100002000
1068500320,,24,捷運信義安和站(信義),25.033142,121.551229,go,0100002000
1067900420,,25,信義通化街口,25.033087,121.5539941,go,0100002000
1067900320,,26,信義光復路口,25.03311,121.55687,go,0100002000
1105100100,,27,世貿中心(基隆路),25.033677,121.5601565,go,0100002000
1105100320,,28,市政府(松壽),25.035836,121.5648932,go,0100002000
1105100420,,29,松壽路口,25.035784,121.5674077,go,0100002000
1105800440,,30,信義松仁路口(松仁),25.034535,121.568236,go,0100002000
1104700720,,31,捷運象山站,25.032648,121.568984,go,0100002000
1108500020,,32,國稅局宿舍,25.03433,121.575678,go,0100002000
1107700520,,33,松山商職(福德),25.036219,121.5787474,go,0100002000
1108000040,,34,永春高中,25.033484,121.5796725,go,0100002000
1088100240,5分鐘,35,國興路口,25.025621,121.508316,go,0100002000
1088200020,6分鐘,36,古亭國中,25.024664,121.509833,go,0100002000
1007200140,7分鐘,37,萬華醫院,25.02391,121.50982,go,0100002000
1088200160,8分鐘,38,青年公園(交通教學區),25.02149,121.50643,go,0100002000
1088200200,9分鐘,39,青年公園(馬場町),25.02023,121.5039,go,0100002000
1087600300,10分鐘,40,青年社宅,25.021587,121.502643,go,0100002000
1087500000,11分鐘,41,青年路,25.023084,121.5027448,go,0100002000
1087600000,12分鐘,42,中正新城,25.024797,121.5032962,go,0100002000
1087600200,13分鐘,43,青年社區,25.025478,121.504647,go,0100002000
1087600100,14分鐘,44,青年公園(青年),25.025964,121.5062868,go,0100002000
1088200340,進站中,45,青年公園(國興),25.0253,121.50712,go,0100002000
1088100300,進站中,1,國興路口一,25.024585,121.5088101,come,0100002000
1006700300,進站中,2,國興路口,25.025757,121.508379,come,0100002000
1006700100,進站中,3,中華南海路口,25.027236,121.5066611,come,0100002000
1006900000,進站中,4,南機場公寓,25.028591,121.5054077,come,0100002000
1006800300,3分鐘,5,廈安里,25.030697,121.5041681,come,0100002000
1006800000,3分鐘,6,大埔街,25.032684,121.504945,come,0100002000
1006500101,5分鐘,7,聯合醫院和平院區,25.0357,121.506607,come,0100002000
1004200000,8分鐘,8,小南門,25.038213,121.5073666,come,0100002000
1004200400,9分鐘,9,捷運西門站,25.040946,121.5082192,come,0100002000
1004300220,11分鐘,10,寶慶路,25.041491,121.509834,come,0100002000
1004500200,13分鐘,11,衡陽路口,25.042018,121.5132,come,0100002000
1004600220,15分鐘,12,博物館(襄陽),25.043339,121.5157262,come,0100002000
1004600040,16分鐘,13,捷運台大醫院站,25.041935,121.5161481,come,0100002000
1004800920,進站中,14,中正紀念堂,25.037153,121.520771,come,0100002000
1004800820,進站中,15,信義杭州路口,25.0357,121.5238361,come,0100002000
1064100120,4分鐘,16,捷運東門站,25.034134,121.5269937,come,0100002000
1065000320,5分鐘,17,信義永康街口(捷運東門站),25.033693,121.529727,come,0100002000
1006100020,7分鐘,18,信義新生路口,25.03353,121.5323283,come,0100002000
1065600420,8分鐘,19,捷運大安森林公園站,25.033496,121.5356316,come,0100002000
1065800120,10分鐘,20,信義建國路口,25.033441,121.539045,come,0100002000
1065800420,11分鐘,21,捷運大安站(信義),25.033323,121.5432319,come,0100002000
1068300220,13分鐘,22,信義大安路口,25.0332,121.5456,come,0100002000
1068100120,14分鐘,23,信義敦化路口,25.033262,121.548298,come,0100002000
1068500320,15分鐘,24,捷運信義安和站(信義),25.033142,121.551229,come,0100002000
1067900420,進站中,25,信義通化街口,25.033087,121.5539941,come,0100002000
1067900320,進站中,26,信義光復路口,25.03311,121.55687,come,0100002000
1105100100,進站中,27,世貿中心(基隆路),25.033677,121.5601565,come,0100002000
1105100320,7分鐘,28,市政府(松壽),25.035836,121.5648932,come,0100002000
1105100420,8分鐘,29,松壽路口,25.035784,121.5674077,come,0100002000
1105800440,進站中,30,信義松仁路口(松仁),25.034535,121.568236,come,0100002000
1104700720,4分鐘,31,捷運象山站,25.032648,121.568984,come,0100002000
1108500020,5分鐘,32,國稅局宿舍,25.03433,121.575678,come,0100002000
1107700520,交管不停,33,松山商職(福德),25.036219,121.5787474,come,0100002000
1108000040,8分鐘,34,永春高中,25.033484,121.5796725,come,0100002000
1088100240,,35,國興路口,25.025621,121.508316,come,0100002000
1088200020,,36,古亭國中,25.024664,121.509833,come,0100002000
1007200140,,37,萬華醫院,25.02391,121.50982,come,0100002000
1088200160,,38,青年公園(交通教學區),25.02149,121.50643,come,0100002000
1088200200,,39,青年公園(馬場町),25.02023,121.5039,come,0100002000
1087600300,,40,青年社宅,25.021587,121.502643,come,0100002000
1087500000,,41,青年路,25.023084,121.5027448,come,0100002000
1087600000,,42,中正新城,25.024797,121.5032962,come,0100002000
1087600200,,43,青年社區,25.025478,121.504647,come,0100002000
1087600100,,44,青年公園(青年),25.025964,121.5062868,come,0100002000
1088200340,,45,青年公園(國興),25.0253,121.50712,come,0100002000
1146000260,,1,成功路三段,25.079854,121.589838,go,0100002100
1147500060,,2,內湖高中,25.079013,121.5883097,go,0100002100
1147500260,,3,捷運文德站(碧湖公園),25.078585,121.584249,go,0100002100
1147300060,,4,湖光國宅,25.07859,121.58078,go,0100002100
1144700061,,5,西湖圖書館(湖光教會),25.07889,121.578499,go,0100002100
1144800240,,6,港墘派出所,25.078636,121.57619,go,0100002100
1149200760,,7,瑞光港墘路口,25.077273,121.573134,go,0100002100
1149200060,,8,仁寶大樓,25.079478,121.568256,go,0100002100
1149200560,,9,基湖路口,25.080515,121.5659034,go,0100002100
1149200340,,10,基湖站,25.07973,121.5646071,go,0100002100
1046201540,,11,堤頂大道口,25.07666,121.56305,go,0100002100
1046200760,,12,明水路三,25.07742,121.54947,go,0100002100
1046500060,,13,大直抽水站,25.07757,121.54534,go,0100002100
1046500360,,14,北安國中,25.07768,121.54181,go,0100002100
1040400060,,15,忠烈祠,25.078002,121.5355521,go,0100002100
1046200460,,16,中央電台,25.078128,121.5301447,go,0100002100
1046201660,,17,圓山大飯店,25.077322,121.5279642,go,0100002100
1046100240,,18,臺北市立美術館,25.070066,121.5230951,go,0100002100
1045200160,,19,花博公園,25.068595,121.5207983,go,0100002100
1036500240,,20,捷運圓山站,25.069195,121.5199738,go,0100002100
1146000260,末班已過,1,成功路三段,25.079854,121.589838,come,0100002100
1147500060,末班已過,2,內湖高中,25.079013,121.5883097,come,0100002100
1147500260,末班已過,3,捷運文德站(碧湖公園),25.078585,121.584249,come,0100002100
1147300060,末班已過,4,湖光國宅,25.07859,121.58078,come,0100002100
1144700061,末班已過,5,西湖圖書館(湖光教會),25.07889,121.578499,come,0100002100
1144800240,末班已過,6,港墘派出所,25.078636,121.57619,come,0100002100
1149200760,末班已過,7,瑞光港墘路口,25.077273,121.573134,come,0100002100
1149200060,末班已過,8,仁寶大樓,25.079478,121.568256,come,0100002100
1149200560,末班已過,9,基湖路口,25.080515,121.5659034,come,0100002100
1149200340,末班已過,10,基湖站,25.07973,121.5646071,come,0100002100
1046201540,末班已過,11,堤頂大道口,25.07666,121.56305,come,0100002100
1046200760,末班已過,12,明水路三,25.07742,121.54947,come,0100002100
1046500060,末班已過,13,大直抽水站,25.07757,121.54534,come,0100002100
1046500360,末班已過,14,北安國中,25.07768,121.54181,come,0100002100
1040400060,進站中,15,忠烈祠,25.078002,121.5355521,come,0100002100
1046200460,4分鐘,16,中央電台,25.078128,121.5301447,come,0100002100
1046201660,5分鐘,17,圓山大飯店,25.077322,121.5279642,come,0100002100
1046100240,8分鐘,18,臺北市立美術館,25.070066,121.5230951,come,0100002100
1045200160,11分鐘,19,花博公園,25.068595,121.5207983,come,0100002100
1036500240,13分鐘,20,捷運圓山站,25.069195,121.5199738,come,0100002100
1004500100,,1,博愛路,25.043262,121.511555,go,0100002200
1004300000,,2,臺北郵局,25.046765,121.5112936,go,0100002200
1004700421,,3,臺北車站(忠孝),25.046815,121.5145215,go,0100002200
1005800120,,4,捷運善導寺站,25.044844,121.522629,go,0100002200
1005500240,,5,開南中學,25.041611,121.522214,go,0100002200
1005200141,,6,仁愛林森路口,25.039391,121.521603,go,0100002200
1004800820,,7,信義杭州路口,25.0357,121.5238361,go,0100002200
1064100120,,8,捷運東門站,25.034134,121.5269937,go,0100002200
1065000320,,9,信義永康街口(捷運東門站),25.033693,121.529727,go,0100002200
1006100020,,10,信義新生路口,25.03353,121.5323283,go,0100002200
1065600420,,11,捷運大安森林公園站,25.033496,121.5356316,go,0100002200
1065800120,,12,信義建國路口,25.033441,121.539045,go,0100002200
1065800420,,13,捷運大安站(信義),25.033323,121.5432319,go,0100002200
1068300220,,14,信義大安路口,25.0332,121.5456,go,0100002200
1068100120,,15,信義敦化路口,25.033262,121.548298,go,0100002200
1068500320,,16,捷運信義安和站(信義),25.033142,121.551229,go,0100002200
1067900420,,17,信義通化街口,25.033087,121.5539941,go,0100002200
1067900320,,18,信義光復路口,25.03311,121.55687,go,0100002200
1104900140,,19,世貿中心(莊敬),25.031446,121.56127,go,0100002200
1104900440,,20,景新里,25.02923,121.5624103,go,0100002200
1105000340,,21,臺北醫學大學,25.028273,121.5632643,go,0100002200
1105000240,,22,信義國中(莊敬),25.027402,121.565724,go,0100002200
1105000020,,23,吳興國小(莊敬),25.026725,121.568122,go,0100002200
1104600240,,24,松仁路,25.024432,121.569585,go,0100002200
1104600100,,25,吳興街站,25.02324,121.56976,go,0100002200
1004500060,11分鐘,26,二二八和平公園,25.042368,121.5125439,go,0100002200
1004500100,13分鐘,1,博愛路,25.043262,121.511555,come,0100002200
1004300000,15分鐘,2,臺北郵局,25.046765,121.5112936,come,0100002200
1004700421,進站中,3,臺北車站(忠孝),25.046815,121.5145215,come,0100002200
1005800120,3分鐘,4,捷運善導寺站,25.044844,121.522629,come,0100002200
1005500240,5分鐘,5,開南中學,25.041611,121.522214,come,0100002200
1005200141,6分鐘,6,仁愛林森路口,25.039391,121.521603,come,0100002200
1004800820,9分鐘,7,信義杭州路口,25.0357,121.5238361,come,0100002200
1064100120,10分鐘,8,捷運東門站,25.034134,121.5269937,come,0100002200
1065000320,11分鐘,9,信義永康街口(捷運東門站),25.033693,121.529727,come,0100002200
1006100020,進站中,10,信義新生路口,25.03353,121.5323283,come,0100002200
1065600420,進站中,11,捷運大安森林公園站,25.033496,121.5356316,come,0100002200
1065800120,3分鐘,12,信義建國路口,25.033441,121.539045,come,0100002200
1065800420,進站中,13,捷運大安站(信義),25.033323,121.5432319,come,0100002200
1068300220,3分鐘,14,信義大安路口,25.0332,121.5456,come,0100002200
1068100120,4分鐘,15,信義敦化路口,25.033262,121.548298,come,0100002200
1068500320,進站中,16,捷運信義安和站(信義),25.033142,121.551229,come,0100002200
1067900420,進站中,17,信義通化街口,25.033087,121.5539941,come,0100002200
1067900320,進站中,18,信義光復路口,25.03311,121.55687,come,0100002200
1104900140,6分鐘,19,世貿中心(莊敬),25.031446,121.56127,come,0100002200
1104900440,7分鐘,20,景新里,25.02923,121.5624103,come,0100002200
1105000340,9分鐘,21,臺北醫學大學,25.028273,121.5632643,come,0100002200
1105000240,11分鐘,22,信義國中(莊敬),25.027402,121.565724,come,0100002200
1105000020,12分鐘,23,吳興國小(莊敬),25.026725,121.568122,come,0100002200
1104600240,14分鐘,24,松仁路,25.024432,121.569585,come,0100002200
1104600100,16分鐘,25,吳興街站,25.02324,121.56976,come,0100002200
1004500060,,26,二二八和平公園,25.042368,121.5125439,come,0100002200
1045700260,,1,南京吉林路口,25.052112,121.5303325,go,0100002600
1045400160,,2,南京林森路口,25.052167,121.5257174,go,0100002600
1035200160,,3,捷運中山站(志仁高中),25.052867,121.519866,go,0100002600
1035300200,,4,建成公園,25.05462,121.51825,go,0100002600
1035300100,,5,民生西路口,25.05801,121.51829,go,0100002600
1035400100,,6,成淵高中,25.060893,121.5184069,go,0100002600
1036400200,,7,防癆協會,25.06357,121.51846,go,0100002600
1035300000,,8,大同國小,25.066329,121.5185171,go,0100002600
1036500000,,9,民族承德路口,25.06894,121.5185487,go,0100002600
1036700400,,10,庫倫街口,25.072586,121.5190411,go,0100002600
1036800000,,11,明倫高中,25.074249,121.5199745,go,0100002600
1116700200,,12,劍潭國小,25.081066,121.5227513,go,0100002600
1116600100,,13,圓山皇宮大廈,25.083356,121.523596,go,0100002600
1116700000,,14,大南路口,25.0879,121.52225,go,0100002600
1116800100,,15,士商路,25.091,121.51989,go,0100002600
1116500860,,16,陽明高中,25.092141,121.517889,go,0100002600
1117200100,,17,社子市場,25.087505,121.5090743,go,0100002600
1117200600,,18,社園里,25.089056,121.5079873,go,0100002600
1117200360,,19,社子派出所,25.089599,121.5064251,go,0100002600
1117200760,,20,永倫里(南),25.089467,121.503968,go,0100002600
1117200400,,21,社子國小,25.089904,121.5025776,go,0100002600
1117500100,,22,永倫里(延平),25.091148,121.500682,go,0100002600
1045700260,預計19:30發車,1,南京吉林路口,25.052112,121.5303325,come,0100002600
1045400160,預計19:30發車,2,南京林森路口,25.052167,121.5257174,come,0100002600
1035200160,預計19:30發車,3,捷運中山站(志仁高中),25.052867,121.519866,come,0100002600
1035300200,預計19:30發車,4,建成公園,25.05462,121.51825,come,0100002600
1035300100,預計19:30發車,5,民生西路口,25.05801,121.51829,come,0100002600
1035400100,預計19:30發車,6,成淵高中,25.060893,121.5184069,come,0100002600
1036400200,預計19:30發車,7,防癆協會,25.06357,121.51846,come,0100002600
1035300000,預計19:30發車,8,大同國小,25.066329,121.5185171,come,0100002600
1036500000,預計19:30發車,9,民族承德路口,25.06894,121.5185487,come,0100002600
1036700400,預計19:30發車,10,庫倫街口,25.072586,121.5190411,come,0100002600
1036800000,預計19:30發車,11,明倫高中,25.074249,121.5199745,come,0100002600
1116700200,預計19:30發車,12,劍潭國小,25.081066,121.5227513,come,0100002600
1116600100,預計19:30發車,13,圓山皇宮大廈,25.083356,121.523596,come,0100002600
1116700000,預計19:30發車,14,大南路口,25.0879,121.52225,come,0100002600
1116800100,預計19:30發車,15,士商路,25.091,121.51989,come,0100002600
1116500860,預計19:30發車,16,陽明高中,25.092141,121.517889,come,0100002600
1117200100,預計19:30發車,17,社子市場,25.087505,121.5090743,come,0100002600
1117200600,預計19:30發車,18,社園里,25.089056,121.5079873,come,0100002600
1117200360,預計19:30發車,19,社子派出所,25.089599,121.5064251,come,0100002600
1117200760,預計19:30發車,20,永倫里(南),25.089467,121.503968,come,0100002600
1117200400,預計19:30發車,21,社子國小,25.089904,121.5025776,come,0100002600
1117500100,預計19:30發車,22,永倫里(延平),25.091148,121.500682,come,0100002600
1100100100,,1,捷運台北101/世貿站(市府),25.034512,121.5635759,go,0100002800
1100800100,,2,市政府(市府),25.038366,121.5636251,go,0100002800
1107000300,,3,松山高中(基隆路),25.044234,121.5664817,go,0100002800
1106900000,,4,基隆路口,25.04831,121.568923,go,0100002800
1056600420,,5,饒河街觀光夜市(八德),25.049815,121.5714654,go,0100002800
1056600020,,6,松山農會,25.049902,121.5738483,go,0100002800
1056700020,,7,松山車站(八德),25.049975,121.5772464,go,0100002800
1157700020,,8,玉成里,25.050867,121.5809831,go,0100002800
1156300220,,9,松山磚廠,25.052203,121.5842017,go,0100002800
1156300320,,10,南港路三段,25.052936,121.5872289,go,0100002800
1156300020,,11,西新里(新新公園),25.053286,121.5896618,go,0100002800
1156300120,,12,玉成國小,25.054083,121.5921075,go,0100002800
1155100300,,13,南港分局(向陽),25.055334,121.5944152,go,0100002800
1147000400,,14,石潭公園(成功),25.061289,121.591281,go,0100002800
1146700000,,15,上灣仔,25.066818,121.5907148,go,0100002800
1146700100,,16,湖興,25.067861,121.5908537,go,0100002800
1147200100,,17,國防醫學中心,25.07121,121.5900311,go,0100002800
1149000200,,18,三總內湖站,25.071852,121.592095,go,0100002800
1147200200,,19,將軍嶺,25.073809,121.5900167,go,0100002800
1146200000,,20,方濟中學,25.076884,121.5902313,go,0100002800
1146000200,,21,成功路三段,25.079617,121.5899398,go,0100002800
1147200060,,22,內湖派出所,25.081987,121.590028,go,0100002800
1146400660,,23,達人高中(臺灣戲曲學院),25.08132,121.58718,go,0100002800
1146400060,,24,內湖國小,25.079397,121.581399,go,0100002800
1144700060,,25,西湖圖書館(湖光教會),25.079106,121.5779835,go,0100002800
1144400260,,26,捷運港墘站(內湖高工),25.079836,121.5761086,go,0100002800
1144400360,,27,麗山國中,25.080638,121.5738603,go,0100002800
1144400460,,28,麗山街,25.081473,121.571386,go,0100002800
1144400060,,29,恕德家商,25.082118,121.5694613,go,0100002800
1144400160,,30,捷運西湖站,25.082421,121.5658681,go,0100002800
1144200160,,31,治磐新村,25.083069,121.5640985,go,0100002800
1144600060,,32,文湖國小,25.084381,121.5615357,go,0100002800
1046400260,,33,美麗華,25.084817,121.5581193,go,0100002800
1046400360,,34,捷運劍南路站,25.085271,121.5546799,go,0100002800
1046600140,,35,明水路一,25.083327,121.550812,go,0100002800
1046600240,,36,明水路二,25.07972,121.55214,go,0100002800
1046200760,,37,明水路三,25.07742,121.54947,go,0100002800
1046500060,,38,大直抽水站,25.07757,121.54534,go,0100002800
1046500420,,39,永安里,25.078877,121.546182,go,0100002800
1046500520,,40,捷運大直站,25.080216,121.5479855,go,0100002800
1046300000,,41,植福宮,25.081609,121.5488002,go,0100002800
1046400100,,42,自強隧道(大直教會),25.083737,121.5493072,go,0100002800
1100100040,21分鐘,43,101國際購物中心,25.034261,121.565358,go,0100002800
1104900360,25分鐘,44,捷運台北101/世貿站(信義),25.033242,121.5645984,go,0100002800
1100100100,26分鐘,1,捷運台北101/世貿站(市府),25.034512,121.5635759,come,0100002800
1100800100,29分鐘,2,市政府(市府),25.038366,121.5636251,come,0100002800
1107000300,37分鐘,3,松山高中(基隆路),25.044234,121.5664817,come,0100002800
1106900000,38分鐘,4,基隆路口,25.04831,121.568923,come,0100002800
1056600420,進站中,5,饒河街觀光夜市(八德),25.049815,121.5714654,come,0100002800
1056600020,進站中,6,松山農會,25.049902,121.5738483,come,0100002800
1056700020,3分鐘,7,松山車站(八德),25.049975,121.5772464,come,0100002800
1157700020,6分鐘,8,玉成里,25.050867,121.5809831,come,0100002800
1156300220,8分鐘,9,松山磚廠,25.052203,121.5842017,come,0100002800
1156300320,10分鐘,10,南港路三段,25.052936,121.5872289,come,0100002800
1156300020,10分鐘,11,西新里(新新公園),25.053286,121.5896618,come,0100002800
1156300120,11分鐘,12,玉成國小,25.054083,121.5921075,come,0100002800
1155100300,14分鐘,13,南港分局(向陽),25.055334,121.5944152,come,0100002800
1147000400,21分鐘,14,石潭公園(成功),25.061289,121.591281,come,0100002800
1146700000,27分鐘,15,上灣仔,25.066818,121.5907148,come,0100002800
1146700100,28分鐘,16,湖興,25.067861,121.5908537,come,0100002800
1147200100,31分鐘,17,國防醫學中心,25.07121,121.5900311,come,0100002800
1149000200,33分鐘,18,三總內湖站,25.071852,121.592095,come,0100002800
1147200200,34分鐘,19,將軍嶺,25.073809,121.5900167,come,0100002800
1146200000,35分鐘,20,方濟中學,25.076884,121.5902313,come,0100002800
1146000200,36分鐘,21,成功路三段,25.079617,121.5899398,come,0100002800
1147200060,39分鐘,22,內湖派出所,25.081987,121.590028,come,0100002800
1146400660,41分鐘,23,達人高中(臺灣戲曲學院),25.08132,121.58718,come,0100002800
1146400060,43分鐘,24,內湖國小,25.079397,121.581399,come,0100002800
1144700060,44分鐘,25,西湖圖書館(湖光教會),25.079106,121.5779835,come,0100002800
1144400260,45分鐘,26,捷運港墘站(內湖高工),25.079836,121.5761086,come,0100002800
1144400360,46分鐘,27,麗山國中,25.080638,121.5738603,come,0100002800
1144400460,47分鐘,28,麗山街,25.081473,121.571386,come,0100002800
1144400060,48分鐘,29,恕德家商,25.082118,121.5694613,come,0100002800
1144400160,49分鐘,30,捷運西湖站,25.082421,121.5658681,come,0100002800
1144200160,51分鐘,31,治磐新村,25.083069,121.5640985,come,0100002800
1144600060,52分鐘,32,文湖國小,25.084381,121.5615357,come,0100002800
1046400260,進站中,33,美麗華,25.084817,121.5581193,come,0100002800
1046400360,進站中,34,捷運劍南路站,25.085271,121.5546799,come,0100002800
1046600140,4分鐘,35,明水路一,25.083327,121.550812,come,0100002800
1046600240,7分鐘,36,明水路二,25.07972,121.55214,come,0100002800
1046200760,8分鐘,37,明水路三,25.07742,121.54947,come,0100002800
1046500060,9分鐘,38,大直抽水站,25.07757,121.54534,come,0100002800
1046500420,10分鐘,39,永安里,25.078877,121.546182,come,0100002800
1046500520,12分鐘,40,捷運大直站,25.080216,121.5479855,come,0100002800
1046300000,12分鐘,41,植福宮,25.081609,121.5488002,come,0100002800
1046400100,13分鐘,42,自強隧道(大直教會),25.083737,121.5493072,come,0100002800
1100100040,,43,101國際購物中心,25.034261,121.565358,come,0100002800
1104900360,,44,捷運台北101/世貿站(信義),25.033242,121.5645984,come,0100002800
1156900100,,1,南港公園一,25.043971,121.5929045,go,0100003200
1156900060,,2,南港公園,25.04584,121.59264,go,0100003200
1155600060,,3,修德國小,25.046622,121.5894869,go,0100003200
1155900360,,4,聯合醫院忠孝院區(同德),25.046237,121.5862517,go,0100003200
1156200260,,5,捷運後山埤站(玉成),25.04521,121.5829604,go,0100003200
1156200360,,6,捷運後山埤站(永吉),25.045397,121.581802,go,0100003200
1156200000,,7,五分埔商圈(中坡北),25.047232,121.58077,go,0100003200
1108700060,,8,松山車站(松隆),25.048183,121.5789197,go,0100003200
1109000040,,9,松山車站(松山),25.047159,121.577685,go,0100003200
1108900040,,10,永吉松山路口,25.044863,121.5776905,go,0100003200
1106100140,,11,捷運永春站(松山),25.041936,121.577654,go,0100003200
1106100260,,12,捷運永春站(忠孝),25.040967,121.575743,go,0100003200
1106600060,,13,市立工農,25.041089,121.5724391,go,0100003200
1107300441,,14,消防局(松仁),25.038604,121.568284,go,0100003200
1107300740,,15,興雅國中,25.037232,121.5682685,go,0100003200
1105800440,,16,信義松仁路口(松仁),25.034535,121.568236,go,0100003200
1104600340,,17,松平路口,25.030795,121.568193,go,0100003200
1105900040,,18,信義國中(松仁),25.02881,121.568164,go,0100003200
1104600040,,19,吳興國小(松仁),25.026231,121.568554,go,0100003200
1104600240,,20,松仁路,25.024432,121.569585,go,0100003200
1104600100,,21,吳興街站,25.02324,121.56976,go,0100003200
1156900140,48分鐘,22,南港公園一,25.043925,121.5927772,go,0100003200
1156900340,49分鐘,23,南港花園社區四,25.039482,121.593565,go,0100003200
1156900260,49分鐘,24,南港花園社區三,25.038953,121.5926327,go,0100003200
1158200100,進站中,25,南港花園社區二,25.040031,121.5911518,go,0100003200
1158200040,進站中,26,南港花園社區一,25.041068,121.591596,go,0100003200
1158200320,進站中,27,南港花園社區五,25.04004,121.5926,go,0100003200
1156900100,3分鐘,1,南港公園一,25.043971,121.5929045,come,0100003200
1156900060,3分鐘,2,南港公園,25.04584,121.59264,come,0100003200
1155600060,4分鐘,3,修德國小,25.046622,121.5894869,come,0100003200
1155900360,6分鐘,4,聯合醫院忠孝院區(同德),25.046237,121.5862517,come,0100003200
1156200260,7分鐘,5,捷運後山埤站(玉成),25.04521,121.5829604,come,0100003200
1156200360,9分鐘,6,捷運後山埤站(永吉),25.045397,121.581802,come,0100003200
1156200000,11分鐘,7,五分埔商圈(中坡北),25.047232,121.58077,come,0100003200
1108700060,12分鐘,8,松山車站(松隆),25.048183,121.5789197,come,0100003200
1109000040,15分鐘,9,松山車站(松山),25.047159,121.577685,come,0100003200
1108900040,17分鐘,10,永吉松山路口,25.044863,121.5776905,come,0100003200
1106100140,18分鐘,11,捷運永春站(松山),25.041936,121.577654,come,0100003200
1106100260,22分鐘,12,捷運永春站(忠孝),25.040967,121.575743,come,0100003200
1106600060,23分鐘,13,市立工農,25.041089,121.5724391,come,0100003200
1107300441,29分鐘,14,消防局(松仁),25.038604,121.568284,come,0100003200
1107300740,30分鐘,15,興雅國中,25.037232,121.5682685,come,0100003200
1105800440,32分鐘,16,信義松仁路口(松仁),25.034535,121.568236,come,0100003200
1104600340,34分鐘,17,松平路口,25.030795,121.568193,come,0100003200
1105900040,35分鐘,18,信義國中(松仁),25.02881,121.568164,come,0100003200
1104600040,進站中,19,吳興國小(松仁),25.026231,121.568554,come,0100003200
1104600240,3分鐘,20,松仁路,25.024432,121.569585,come,0100003200
1104600100,4分鐘,21,吳興街站,25.02324,121.56976,come,0100003200
1156900140,,22,南港公園一,25.043925,121.5927772,come,0100003200
1156900340,,23,南港花園社區四,25.039482,121.593565,come,0100003200
1156900260,,24,南港花園社區三,25.038953,121.5926327,come,0100003200
1158200100,,25,南港花園社區二,25.040031,121.5911518,come,0100003200
1158200040,,26,南港花園社區一,25.041068,121.591596,come,0100003200
1158200320,,27,南港花園社區五,25.04004,121.5926,come,0100003200
1046201940,,1,敬業四路,25.081855,121.5584464,go,0100003300
1046600660,,2,大直美堤花園二,25.08002,121.5574829,go,0100003300
1046201360,,3,大直美堤花園三,25.080032,121.5556576,go,0100003300
1046200860,,4,明水路口,25.08014,121.55263,go,0100003300
1046600100,,5,明水路一,25.082292,121.551413,go,0100003300
1046400040,,6,自強隧道,25.083774,121.5490281,go,0100003300
1046300040,,7,植福宮,25.080848,121.5482394,go,0100003300
1046500560,,8,捷運大直站,25.079923,121.5461397,go,0100003300
1047600640,,9,復興北村,25.064978,121.5441547,go,0100003300
1054100020,,10,民權敦化路口,25.06202,121.5476253,go,0100003300
1054200120,,11,民權東路口,25.061587,121.5496186,go,0100003300
1054600040,,12,民生敦化路口,25.057956,121.548902,go,0100003300
1054800440,,13,長春敦化路口,25.05458,121.54883,go,0100003300
1059500040,,14,臺北小巨蛋,25.052139,121.548768,go,0100003300
1055100040,,15,八德敦化路口,25.04864,121.54874,go,0100003300
1055700240,,16,市民敦化路口,25.045271,121.548797,go,0100003300
1069000140,,17,忠孝敦化路口,25.041865,121.5487541,go,0100003300
1068500140,,18,仁愛敦化路口,25.039043,121.548697,go,0100003300
1068100140,,19,信義敦化路口,25.033775,121.548726,go,0100003300
1068500320,,20,捷運信義安和站(信義),25.033142,121.551229,go,0100003300
1067900420,,21,信義通化街口,25.033087,121.5539941,go,0100003300
1067900320,,22,信義光復路口,25.03311,121.55687,go,0100003300
1104900140,,23,世貿中心(莊敬),25.031446,121.56127,go,0100003300
1104900440,,24,景新里,25.02923,121.5624103,go,0100003300
1105000340,,25,臺北醫學大學,25.028273,121.5632643,go,0100003300
1105000240,,26,信義國中(莊敬),25.027402,121.565724,go,0100003300
1104600001,,27,吳興國小(松仁),25.027082,121.568415,go,0100003300
1105900000,,28,信義國中(松仁),25.02881,121.568464,go,0100003300
1105800300,,29,松平路口,25.03124,121.56839,go,0100003300
1104700720,,30,捷運象山站,25.032648,121.568984,go,0100003300
1108500020,,31,國稅局宿舍,25.03433,121.575678,go,0100003300
1108600020,,32,松山商職(信義),25.035968,121.5777733,go,0100003300
1107700520,,33,松山商職(福德),25.036219,121.5787474,go,0100003300
1107700620,,34,松友新村,25.036858,121.581141,go,0100003300
1107800120,,35,信義行政中心(奉天宮),25.037669,121.5832737,go,0100003300
1107700000,,36,大道路,25.040321,121.5827027,go,0100003300
1107700400,,37,忠孝大道路口,25.042496,121.5815915,go,0100003300
1106200260,,38,春光公園,25.042632,121.580447,go,0100003300
1107600040,,39,永春公寓,25.039975,121.5777181,go,0100003300
1107600140,,40,松山商職(松山),25.036576,121.5783351,go,0100003300
1108000040,,41,永春高中,25.033484,121.5796725,go,0100003300
1046201940,5分鐘,1,敬業四路,25.081855,121.5584464,come,0100003300
1046600660,6分鐘,2,大直美堤花園二,25.08002,121.5574829,come,0100003300
1046201360,7分鐘,3,大直美堤花園三,25.080032,121.5556576,come,0100003300
1046200860,9分鐘,4,明水路口,25.08014,121.55263,come,0100003300
1046600100,11分鐘,5,明水路一,25.082292,121.551413,come,0100003300
1046400040,15分鐘,6,自強隧道,25.083774,121.5490281,come,0100003300
1046300040,16分鐘,7,植福宮,25.080848,121.5482394,come,0100003300
1046500560,進站中,8,捷運大直站,25.079923,121.5461397,come,0100003300
1047600640,7分鐘,9,復興北村,25.064978,121.5441547,come,0100003300
1054100020,11分鐘,10,民權敦化路口,25.06202,121.5476253,come,0100003300
1054200120,11分鐘,11,民權東路口,25.061587,121.5496186,come,0100003300
1054600040,14分鐘,12,民生敦化路口,25.057956,121.548902,come,0100003300
1054800440,16分鐘,13,長春敦化路口,25.05458,121.54883,come,0100003300
1059500040,19分鐘,14,臺北小巨蛋,25.052139,121.548768,come,0100003300
1055100040,21分鐘,15,八德敦化路口,25.04864,121.54874,come,0100003300
1055700240,進站中,16,市民敦化路口,25.045271,121.548797,come,0100003300
1069000140,進站中,17,忠孝敦化路口,25.041865,121.5487541,come,0100003300
1068500140,4分鐘,18,仁愛敦化路口,25.039043,121.548697,come,0100003300
1068100140,7分鐘,19,信義敦化路口,25.033775,121.548726,come,0100003300
1068500320,10分鐘,20,捷運信義安和站(信義),25.033142,121.551229,come,0100003300
1067900420,11分鐘,21,信義通化街口,25.033087,121.5539941,come,0100003300
1067900320,13分鐘,22,信義光復路口,25.03311,121.55687,come,0100003300
1104900140,17分鐘,23,世貿中心(莊敬),25.031446,121.56127,come,0100003300
1104900440,19分鐘,24,景新里,25.02923,121.5624103,come,0100003300
1105000340,20分鐘,25,臺北醫學大學,25.028273,121.5632643,come,0100003300
1105000240,21分鐘,26,信義國中(莊敬),25.027402,121.565724,come,0100003300
1104600001,23分鐘,27,吳興國小(松仁),25.027082,121.568415,come,0100003300
1105900000,24分鐘,28,信義國中(松仁),25.02881,121.568464,come,0100003300
1105800300,25分鐘,29,松平路口,25.03124,121.56839,come,0100003300
1104700720,27分鐘,30,捷運象山站,25.032648,121.568984,come,0100003300
1108500020,30分鐘,31,國稅局宿舍,25.03433,121.575678,come,0100003300
1108600020,31分鐘,32,松山商職(信義),25.035968,121.5777733,come,0100003300
1107700520,交管不停,33,松山商職(福德),25.036219,121.5787474,come,0100003300
1107700620,末班已過,34,松友新村,25.036858,121.581141,come,0100003300
1107800120,末班已過,35,信義行政中心(奉天宮),25.037669,121.5832737,come,0100003300
1107700000,末班已過,36,大道路,25.040321,121.5827027,come,0100003300
1107700400,末班已過,37,忠孝大道路口,25.042496,121.5815915,come,0100003300
1106200260,末班已過,38,春光公園,25.042632,121.580447,come,0100003300
1107600040,末班已過,39,永春公寓,25.039975,121.5777181,come,0100003300
1107600140,末班已過,40,松山商職(松山),25.036576,121.5783351,come,0100003300
1108000040,進站中,41,永春高中,25.033484,121.5796725,come,0100003300
1004100820,,1,臺北車站(青島),25.044844,121.517704,go,0100003700
1005500340,,2,臺大醫院,25.042497,121.5185042,go,0100003700
1005100020,,3,仁愛中山路口,25.039129,121.5184523,go,0100003700
1005200120,,4,仁愛林森路口,25.038769,121.5213453,go,0100003700
1005200220,,5,仁愛紹興街口,25.038452,121.5235878,go,0100003700
1006000220,,6,仁愛臨沂街口,25.038218,121.5280453,go,0100003700
1006200120,,7,仁愛新生路口,25.038163,121.5324028,go,0100003700
1065100120,,8,幸安國小,25.038044,121.5343357,go,0100003700
1065300020,,9,仁愛建國路口一,25.038031,121.5370721,go,0100003700
1065600020,,10,仁愛建國路口二,25.037966,121.5406655,go,0100003700
1068500020,,11,仁愛復興路口(福華飯店),25.037854,121.543165,go,0100003700
1069100020,,12,仁愛大安路口(仁愛醫院),25.03784,121.545738,go,0100003700
1068800120,,13,仁愛敦化路口(圓環),25.037783,121.5476903,go,0100003700
1068800020,,14,仁愛安和路口,25.037721,121.5508833,go,0100003700
1068700140,,15,仁愛國小,25.036502,121.5520521,go,0100003700
1068000240,,16,捷運信義安和站(安和),25.034385,121.552398,go,0100003700
1067900420,,17,信義通化街口,25.033087,121.5539941,go,0100003700
1067900320,,18,信義光復路口,25.03311,121.55687,go,0100003700
1104900140,,19,世貿中心(莊敬),25.031446,121.56127,go,0100003700
1104900440,,20,景新里,25.02923,121.5624103,go,0100003700
1105000340,,21,臺北醫學大學,25.028273,121.5632643,go,0100003700
1105000240,,22,信義國中(莊敬),25.027402,121.565724,go,0100003700
1105000020,,23,吳興國小(莊敬),25.026725,121.568122,go,0100003700
1104600240,,24,松仁路,25.024432,121.569585,go,0100003700
1104600100,,25,吳興街站,25.02324,121.56976,go,0100003700
1004100820,26分鐘,1,臺北車站(青島),25.044844,121.517704,come,0100003700
1005500340,進站中,2,臺大醫院,25.042497,121.5185042,come,0100003700
1005100020,進站中,3,仁愛中山路口,25.039129,121.5184523,come,0100003700
1005200120,3分鐘,4,仁愛林森路口,25.038769,121.5213453,come,0100003700
1005200220,4分鐘,5,仁愛紹興街口,25.038452,121.5235878,come,0100003700
1006000220,5分鐘,6,仁愛臨沂街口,25.038218,121.5280453,come,0100003700
1006200120,7分鐘,7,仁愛新生路口,25.038163,121.5324028,come,0100003700
1065100120,8分鐘,8,幸安國小,25.038044,121.5343357,come,0100003700
1065300020,9分鐘,9,仁愛建國路口一,25.038031,121.5370721,come,0100003700
1065600020,10分鐘,10,仁愛建國路口二,25.037966,121.5406655,come,0100003700
1068500020,11分鐘,11,仁愛復興路口(福華飯店),25.037854,121.543165,come,0100003700
1069100020,13分鐘,12,仁愛大安路口(仁愛醫院),25.03784,121.545738,come,0100003700
1068800120,13分鐘,13,仁愛敦化路口(圓環),25.037783,121.5476903,come,0100003700
1068800020,16分鐘,14,仁愛安和路口,25.037721,121.5508833,come,0100003700
1068700140,17分鐘,15,仁愛國小,25.036502,121.5520521,come,0100003700
1068000240,18分鐘,16,捷運信義安和站(安和),25.034385,121.552398,come,0100003700
1067900420,20分鐘,17,信義通化街口,25.033087,121.5539941,come,0100003700
1067900320,21分鐘,18,信義光復路口,25.03311,121.55687,come,0100003700
1104900140,25分鐘,19,世貿中心(莊敬),25.031446,121.56127,come,0100003700
1104900440,25分鐘,20,景新里,25.02923,121.5624103,come,0100003700
1105000340,26分鐘,21,臺北醫學大學,25.028273,121.5632643,come,0100003700
1105000240,29分鐘,22,信義國中(莊敬),25.027402,121.565724,come,0100003700
1105000020,30分鐘,23,吳興國小(莊敬),25.026725,121.568122,come,0100003700
1104600240,32分鐘,24,松仁路,25.024432,121.569585,come,0100003700
1104600100,34分鐘,25,吳興街站,25.02324,121.56976,come,0100003700
1065600460,,1,捷運大安森林公園站,25.03355,121.5359159,go,0100003800
1065600360,,2,信義新生路口,25.033627,121.5331327,go,0100003800
1065100260,,3,信義永康街口,25.033765,121.5301447,go,0100003800
1005700060,,4,捷運東門站,25.034232,121.526986,go,0100003800
1004800860,,5,信義杭州路口,25.035417,121.5246296,go,0100003800
1004800960,,6,中正紀念堂,25.03739,121.52056,go,0100003800
1004800260,,7,一女中(貴陽),25.038656,121.5144986,go,0100003800
1004800760,,8,東吳大學城中校區,25.03918,121.50941,go,0100003800
1004200160,,9,小南門(和平院區),25.03723,121.507745,go,0100003800
1084900160,,10,桂林昆明街口,25.0381,121.5043,go,0100003800
1084800160,,11,桂林路,25.038472,121.5008151,go,0100003800
1085500541,,12,龍山寺(西園),25.0363,121.49929,go,0100003800
1085500160,,13,中國時報,25.035454,121.4969752,go,0100003800
1088300140,,14,華江派出所,25.034006,121.493016,go,0100003800
1085800140,,15,大理高中,25.03162,121.490827,go,0100003800
1085800240,,16,綜合市場,25.03054,121.4898,go,0100003800
1064100200,12分鐘,17,愛國東路口,25.03276,121.522887,go,0100003800
1064100000,12分鐘,18,金甌女中,25.034934,121.5241858,go,0100003800
1064100120,16分鐘,19,捷運東門站,25.034134,121.5269937,go,0100003800
1065000320,17分鐘,20,信義永康街口(捷運東門站),25.033693,121.529727,go,0100003800
1006100020,17分鐘,21,信義新生路口,25.03353,121.5323283,go,0100003800
1065600420,19分鐘,22,捷運大安森林公園站,25.033496,121.5356316,go,0100003800
1065900000,23分鐘,23,大安國宅,25.029775,121.5380059,go,0100003800
1065600460,進站中,1,捷運大安森林公園站,25.03355,121.5359159,come,0100003800
1065600360,進站中,2,信義新生路口,25.033627,121.5331327,come,0100003800
1065100260,3分鐘,3,信義永康街口,25.033765,121.5301447,come,0100003800
1005700060,5分鐘,4,捷運東門站,25.034232,121.526986,come,0100003800
1004800860,6分鐘,5,信義杭州路口,25.035417,121.5246296,come,0100003800
1004800960,7分鐘,6,中正紀念堂,25.03739,121.52056,come,0100003800
1004800260,11分鐘,7,一女中(貴陽),25.038656,121.5144986,come,0100003800
1004800760,14分鐘,8,東吳大學城中校區,25.03918,121.50941,come,0100003800
1004200160,16分鐘,9,小南門(和平院區),25.03723,121.507745,come,0100003800
1084900160,21分鐘,10,桂林昆明街口,25.0381,121.5043,come,0100003800
1084800160,23分鐘,11,桂林路,25.038472,121.5008151,come,0100003800
1085500541,25分鐘,12,龍山寺(西園),25.0363,121.49929,come,0100003800
1085500160,27分鐘,13,中國時報,25.035454,121.4969752,come,0100003800
1088300140,29分鐘,14,華江派出所,25.034006,121.493016,come,0100003800
1085800140,30分鐘,15,大理高中,25.03162,121.490827,come,0100003800
1085800240,31分鐘,16,綜合市場,25.03054,121.4898,come,0100003800
1064100200,,17,愛國東路口,25.03276,121.522887,come,0100003800
1064100000,,18,金甌女中,25.034934,121.5241858,come,0100003800
1064100120,,19,捷運東門站,25.034134,121.5269937,come,0100003800
1065000320,,20,信義永康街口(捷運東門站),25.033693,121.529727,come,0100003800
1006100020,,21,信義新生路口,25.03353,121.5323283,come,0100003800
1065600420,,22,捷運大安森林公園站,25.033496,121.5356316,come,0100003800
1065900000,,23,大安國宅,25.029775,121.5380059,come,0100003800
1085200701,,1,龍山寺(剝皮寮),25.036891,121.501585,go,0100003820
1084800160,,2,桂林路,25.038472,121.5008151,go,0100003820
1085500541,,3,龍山寺(西園),25.0363,121.49929,go,0100003820
1085500040,,4,大理服飾,25.034146,121.498448,go,0100003820
1085900040,,5,西園29服飾基地,25.03244,121.49746,go,0100003820
1085900140,,6,華江高中(西園),25.029658,121.4959508,go,0100003820
1088400060,,7,環南市場(西藏),25.028698,121.493015,go,0100003820
1086400220,,8,雙園國中,25.027514,121.4930716,go,0100003820
1086700220,,9,寶興街,25.025798,121.4943587,go,0100003820
1086700040,,10,民和街口,25.024334,121.49501,go,0100003820
1086700140,,11,楊聖廟,25.022395,121.495706,go,0100003820
1088500020,,12,東園公園,25.021365,121.495968,go,0100003820
1085200701,11分鐘,1,龍山寺(剝皮寮),25.036891,121.501585,come,0100003820
1084800160,11分鐘,2,桂林路,25.038472,121.5008151,come,0100003820
1085500541,13分鐘,3,龍山寺(西園),25.0363,121.49929,come,0100003820
1085500040,15分鐘,4,大理服飾,25.034146,121.498448,come,0100003820
1085900040,16分鐘,5,西園29服飾基地,25.03244,121.49746,come,0100003820
1085900140,17分鐘,6,華江高中(西園),25.029658,121.4959508,come,0100003820
1088400060,19分鐘,7,環南市場(西藏),25.028698,121.493015,come,0100003820
1086400220,20分鐘,8,雙園國中,25.027514,121.4930716,come,0100003820
1086700220,24分鐘,9,寶興街,25.025798,121.4943587,come,0100003820
1086700040,25分鐘,10,民和街口,25.024334,121.49501,come,0100003820
1086700140,25分鐘,11,楊聖廟,25.022395,121.495706,come,0100003820
1088500020,26分鐘,12,東園公園,25.021365,121.495968,come,0100003820
1005800120,,1,捷運善導寺站,25.044844,121.522629,go,0100003900
1005100140,,2,成功中學(林森),25.042924,121.5226887,go,0100003900
1005100560,,3,立法院,25.043292,121.519461,go,0100003900
1004100761,,4,臺北車站(忠孝),25.047409,121.5139852,go,0100003900
2414300800,,5,重安街口,25.056951,121.4941915,go,0100003900
2414300200,,6,中正南路,25.059629,121.494168,go,0100003900
2414300020,,7,大同路口,25.061403,121.49493,go,0100003900
2414700300,,8,正義重新路口,25.063532,121.4975969,go,0100003900
2414700001,,9,長元西街口,25.065218,121.497108,go,0100003900
2414600200,,10,長壽西街口,25.067084,121.496507,go,0100003900
2414600000,,11,三安里,25.068631,121.4960811,go,0100003900
2414600700,,12,龍門路口,25.070313,121.495103,go,0100003900
2414600100,,13,介壽廣場,25.071595,121.4935573,go,0100003900
2414500560,,14,忠孝路口,25.071861,121.4918809,go,0100003900
2415400860,,15,厚德國小,25.072129,121.4890588,go,0100003900
2415400400,,16,永德里,25.072404,121.4870209,go,0100003900
2415401300,,17,格致中學(自強路),25.074919,121.487472,go,0100003900
2415200000,,18,三和國中,25.076399,121.4873983,go,0100003900
2415200700,,19,捷運三和國中站,25.077101,121.486132,go,0100003900
2415200400,,20,建和新村,25.078027,121.4844874,go,0100003900
2415200300,,21,幸福市場,25.078913,121.4828427,go,0100003900
2415200600,,22,徐匯中學,25.07973,121.4814,go,0100003900
2415200520,,23,美美新村,25.081225,121.484717,go,0100003900
2415201000,,24,碧華寺,25.083312,121.4875434,go,0100003900
2415102321,,25,慈化公園,25.085104,121.4884832,go,0100003900
2415300200,,26,分子尾,25.087272,121.4879548,go,0100003900
1005800120,進站中,1,捷運善導寺站,25.044844,121.522629,come,0100003900
1005100140,4分鐘,2,成功中學(林森),25.042924,121.5226887,come,0100003900
1005100560,5分鐘,3,立法院,25.043292,121.519461,come,0100003900
1004100761,10分鐘,4,臺北車站(忠孝),25.047409,121.5139852,come,0100003900
2414300800,4分鐘,5,重安街口,25.056951,121.4941915,come,0100003900
2414300200,6分鐘,6,中正南路,25.059629,121.494168,come,0100003900
2414300020,8分鐘,7,大同路口,25.061403,121.49493,come,0100003900
2414700300,12分鐘,8,正義重新路口,25.063532,121.4975969,come,0100003900
2414700001,12分鐘,9,長元西街口,25.065218,121.497108,come,0100003900
2414600200,14分鐘,10,長壽西街口,25.067084,121.496507,come,0100003900
2414600000,進站中,11,三安里,25.068631,121.4960811,come,0100003900
2414600700,進站中,12,龍門路口,25.070313,121.495103,come,0100003900
2414600100,進站中,13,介壽廣場,25.071595,121.4935573,come,0100003900
2414500560,4分鐘,14,忠孝路口,25.071861,121.4918809,come,0100003900
2415400860,4分鐘,15,厚德國小,25.072129,121.4890588,come,0100003900
2415400400,6分鐘,16,永德里,25.072404,121.4870209,come,0100003900
2415401300,7分鐘,17,格致中學(自強路),25.074919,121.487472,come,0100003900
2415200000,8分鐘,18,三和國中,25.076399,121.4873983,come,0100003900
2415200700,進站中,19,捷運三和國中站,25.077101,121.486132,come,0100003900
2415200400,進站中,20,建和新村,25.078027,121.4844874,come,0100003900
2415200300,進站中,21,幸福市場,25.078913,121.4828427,come,0100003900
2415200600,進站中,22,徐匯中學,25.07973,121.4814,come,0100003900
2415200520,5分鐘,23,美美新村,25.081225,121.484717,come,0100003900
2415201000,6分鐘,24,碧華寺,25.083312,121.4875434,come,0100003900
2415102321,7分鐘,25,慈化公園,25.085104,121.4884832,come,0100003900
2415300200,進站中,26,分子尾,25.087272,121.4879548,come,0100003900
1005800120,,1,捷運善導寺站,25.044844,121.522629,go,0100003940
1005100140,,2,成功中學(林森),25.042924,121.5226887,go,0100003940
1005100560,,3,立法院,25.043292,121.519461,go,0100003940
1004100761,,4,臺北車站(忠孝),25.047409,121.5139852,go,0100003940
2414300800,,5,重安街口,25.056951,121.4941915,go,0100003940
2414300200,,6,中正南路,25.059629,121.494168,go,0100003940
2414300020,,7,大同路口,25.061403,121.49493,go,0100003940
2414700300,,8,正義重新路口,25.063532,121.4975969,go,0100003940
2414700001,,9,長元西街口,25.065218,121.497108,go,0100003940
2414600200,,10,長壽西街口,25.067084,121.496507,go,0100003940
2414600000,,11,三安里,25.068631,121.4960811,go,0100003940
2414600700,,12,龍門路口,25.070313,121.495103,go,0100003940
2414600100,,13,介壽廣場,25.071595,121.4935573,go,0100003940
2414500560,,14,忠孝路口,25.071861,121.4918809,go,0100003940
2415400860,,15,厚德國小,25.072129,121.4890588,go,0100003940
2415400400,,16,永德里,25.072404,121.4870209,go,0100003940
2415401300,,17,格致中學(自強路),25.074919,121.487472,go,0100003940
2415200000,,18,三和國中,25.076399,121.4873983,go,0100003940
2415200700,,19,捷運三和國中站,25.077101,121.486132,go,0100003940
2415200400,,20,建和新村,25.078027,121.4844874,go,0100003940
2415200300,,21,幸福市場,25.078913,121.4828427,go,0100003940
2415200600,,22,徐匯中學,25.07973,121.4814,go,0100003940
2415200520,,23,美美新村,25.081225,121.484717,go,0100003940
2415201000,,24,碧華寺,25.083312,121.4875434,go,0100003940
2415102321,,25,慈化公園,25.085104,121.4884832,go,0100003940
2415300200,,26,分子尾,25.087272,121.4879548,go,0100003940
1005800120,預計23:30發車,1,捷運善導寺站,25.044844,121.522629,come,0100003940
1005100140,預計23:30發車,2,成功中學(林森),25.042924,121.5226887,come,0100003940
1005100560,預計23:30發車,3,立法院,25.043292,121.519461,come,0100003940
1004100761,預計23:30發車,4,臺北車站(忠孝),25.047409,121.5139852,come,0100003940
2414300800,預計23:30發車,5,重安街口,25.056951,121.4941915,come,0100003940
2414300200,預計23:30發車,6,中正南路,25.059629,121.494168,come,0100003940
2414300020,預計23:30發車,7,大同路口,25.061403,121.49493,come,0100003940
2414700300,預計23:30發車,8,正義重新路口,25.063532,121.4975969,come,0100003940
2414700001,預計23:30發車,9,長元西街口,25.065218,121.497108,come,0100003940
2414600200,預計23:30發車,10,長壽西街口,25.067084,121.496507,come,0100003940
2414600000,預計23:30發車,11,三安里,25.068631,121.4960811,come,0100003940
2414600700,預計23:30發車,12,龍門路口,25.070313,121.495103,come,0100003940
2414600100,預計23:30發車,13,介壽廣場,25.071595,121.4935573,come,0100003940
2414500560,預計23:30發車,14,忠孝路口,25.071861,121.4918809,come,0100003940
2415400860,預計23:30發車,15,厚德國小,25.072129,121.4890588,come,0100003940
2415400400,預計23:30發車,16,永德里,25.072404,121.4870209,come,0100003940
2415401300,預計23:30發車,17,格致中學(自強路),25.074919,121.487472,come,0100003940
2415200000,預計23:30發車,18,三和國中,25.076399,121.4873983,come,0100003940
2415200700,預計23:30發車,19,捷運三和國中站,25.077101,121.486132,come,0100003940
2415200400,預計23:30發車,20,建和新村,25.078027,121.4844874,come,0100003940
2415200300,預計23:30發車,21,幸福市場,25.078913,121.4828427,come,0100003940
2415200600,預計23:30發車,22,徐匯中學,25.07973,121.4814,come,0100003940
2415200520,預計23:30發車,23,美美新村,25.081225,121.484717,come,0100003940
2415201000,預計23:30發車,24,碧華寺,25.083312,121.4875434,come,0100003940
2415102321,預計23:30發車,25,慈化公園,25.085104,121.4884832,come,0100003940
2415300200,預計23:30發車,26,分子尾,25.087272,121.4879548,come,0100003940
1066500200,,1,捷運大安站(復興),25.0341,121.54387,go,0100004100
1066500100,,2,東豐復興路口,25.035508,121.543866,go,0100004100
1066600600,,3,聯合醫院仁愛院區,25.038503,121.5439053,go,0100004100
1066600300,,4,捷運忠孝復興站,25.042932,121.54391,go,0100004100
1055600000,,5,復興南路(中崙里),25.04531,121.54399,go,0100004100
1049000060,,6,長安復興路口,25.048335,121.542821,go,0100004100
1049000160,,7,長安龍江路口,25.04838,121.54094,go,0100004100
1049100160,,8,中山女高,25.048443,121.5377986,go,0100004100
1045500060,,9,長安東路二段,25.048538,121.5340244,go,0100004100
1048600100,,10,捷運松江南京站,25.051799,121.533087,go,0100004100
1045900300,,11,長春松江路口,25.054536,121.5331386,go,0100004100
1048300200,,12,捷運行天宮站(松江路),25.057613,121.5331766,go,0100004100
1048300000,,13,民權松江路口,25.062118,121.5332139,go,0100004100
1047000060,,14,民權吉林路口,25.062593,121.5291615,go,0100004100
1045100061,,15,捷運中山國小站,25.062751,121.5259472,go,0100004100
1045200260,,16,民權中山路口,25.062853,121.5230024,go,0100004100
1036100361,,17,捷運民權西路站,25.063062,121.519192,go,0100004100
1036100060,,18,大龍街口,25.063069,121.517328,go,0100004100
1036300200,,19,昌吉重慶路口,25.065794,121.5137575,go,0100004100
1036900000,,20,民族重慶路口,25.068308,121.5137993,go,0100004100
1037300120,,21,酒泉重慶路口,25.071985,121.5143475,go,0100004100
1036700020,,22,大龍峒保安宮,25.071954,121.5154577,go,0100004100
1036700400,,23,庫倫街口,25.072586,121.5190411,go,0100004100
1036800000,,24,明倫高中,25.074249,121.5199745,go,0100004100
1116700200,,25,劍潭國小,25.081066,121.5227513,go,0100004100
1116600100,,26,圓山皇宮大廈,25.083356,121.523596,go,0100004100
1116200500,,27,捷運劍潭站(北藝中心),25.084914,121.524923,go,0100004100
1116200100,,28,士林市場(銘傳會館),25.087844,121.5240042,go,0100004100
1116200300,,29,公教住宅,25.090677,121.522119,go,0100004100
1116500160,,30,士林區行政中心(基河),25.092979,121.5204546,go,0100004100
1116000200,,31,天文科學館,25.09549,121.51822,go,0100004100
1116500540,,32,國立科教館,25.095347,121.5174191,go,0100004100
1116500960,,33,兒童新樂園,25.096364,121.5146581,go,0100004100
1123700100,,34,中鼎第二總部大樓,25.100425,121.509985,go,0100004100
1123700060,,35,福美承平路口,25.100605,121.5070565,go,0100004100
1127700060,,36,三王宮,25.100488,121.505557,go,0100004100
1127700760,,37,福美站,25.100447,121.504489,go,0100004100
1055600220,15分鐘,38,臺安醫院,25.048142,121.5462971,go,0100004100
1055700240,進站中,39,市民敦化路口,25.045271,121.548797,go,0100004100
1069000140,3分鐘,40,忠孝敦化路口,25.041865,121.5487541,go,0100004100
1068500140,6分鐘,41,仁愛敦化路口,25.039043,121.548697,go,0100004100
1068100141,進站中,42,信義敦化路口,25.034123,121.5485022,go,0100004100
1068400060,5分鐘,43,信義大安路口,25.033383,121.5461666,go,0100004100
1068400260,5分鐘,44,捷運大安站(信義),25.033404,121.5438266,go,0100004100
1066500200,進站中,1,捷運大安站(復興),25.0341,121.54387,come,0100004100
1066500100,進站中,2,東豐復興路口,25.035508,121.543866,come,0100004100
1066600600,進站中,3,聯合醫院仁愛院區,25.038503,121.5439053,come,0100004100
1066600300,3分鐘,4,捷運忠孝復興站,25.042932,121.54391,come,0100004100
1055600000,5分鐘,5,復興南路(中崙里),25.04531,121.54399,come,0100004100
1049000060,7分鐘,6,長安復興路口,25.048335,121.542821,come,0100004100
1049000160,8分鐘,7,長安龍江路口,25.04838,121.54094,come,0100004100
1049100160,10分鐘,8,中山女高,25.048443,121.5377986,come,0100004100
1045500060,11分鐘,9,長安東路二段,25.048538,121.5340244,come,0100004100
1048600100,14分鐘,10,捷運松江南京站,25.051799,121.533087,come,0100004100
1045900300,15分鐘,11,長春松江路口,25.054536,121.5331386,come,0100004100
1048300200,18分鐘,12,捷運行天宮站(松江路),25.057613,121.5331766,come,0100004100
1048300000,19分鐘,13,民權松江路口,25.062118,121.5332139,come,0100004100
1047000060,22分鐘,14,民權吉林路口,25.062593,121.5291615,come,0100004100
1045100061,23分鐘,15,捷運中山國小站,25.062751,121.5259472,come,0100004100
1045200260,24分鐘,16,民權中山路口,25.062853,121.5230024,come,0100004100
1036100361,26分鐘,17,捷運民權西路站,25.063062,121.519192,come,0100004100
1036100060,28分鐘,18,大龍街口,25.063069,121.517328,come,0100004100
1036300200,31分鐘,19,昌吉重慶路口,25.065794,121.5137575,come,0100004100
1036900000,進站中,20,民族重慶路口,25.068308,121.5137993,come,0100004100
1037300120,4分鐘,21,酒泉重慶路口,25.071985,121.5143475,come,0100004100
1036700020,5分鐘,22,大龍峒保安宮,25.071954,121.5154577,come,0100004100
1036700400,6分鐘,23,庫倫街口,25.072586,121.5190411,come,0100004100
1036800000,7分鐘,24,明倫高中,25.074249,121.5199745,come,0100004100
1116700200,9分鐘,25,劍潭國小,25.081066,121.5227513,come,0100004100
1116600100,11分鐘,26,圓山皇宮大廈,25.083356,121.523596,come,0100004100
1116200500,14分鐘,27,捷運劍潭站(北藝中心),25.084914,121.524923,come,0100004100
1116200100,18分鐘,28,士林市場(銘傳會館),25.087844,121.5240042,come,0100004100
1116200300,19分鐘,29,公教住宅,25.090677,121.522119,come,0100004100
1116500160,20分鐘,30,士林區行政中心(基河),25.092979,121.5204546,come,0100004100
1116000200,進站中,31,天文科學館,25.09549,121.51822,come,0100004100
1116500540,進站中,32,國立科教館,25.095347,121.5174191,come,0100004100
1116500960,進站中,33,兒童新樂園,25.096364,121.5146581,come,0100004100
1123700100,末班已過,34,中鼎第二總部大樓,25.100425,121.509985,come,0100004100
1123700060,7分鐘,35,福美承平路口,25.100605,121.5070565,come,0100004100
1127700060,8分鐘,36,三王宮,25.100488,121.505557,come,0100004100
1127700760,13分鐘,37,福美站,25.100447,121.504489,come,0100004100
1055600220,,38,臺安醫院,25.048142,121.5462971,come,0100004100
1055700240,,39,市民敦化路口,25.045271,121.548797,come,0100004100
1069000140,,40,忠孝敦化路口,25.041865,121.5487541,come,0100004100
1068500140,,41,仁愛敦化路口,25.039043,121.548697,come,0100004100
1068100141,,42,信義敦化路口,25.034123,121.5485022,come,0100004100
1068400060,,43,信義大安路口,25.033383,121.5461666,come,0100004100
1068400260,,44,捷運大安站(信義),25.033404,121.5438266,come,0100004100
1034900100,,1,後車站,25.050269,121.5135627,go,0100004200
1035000300,,2,圓環(重慶),25.052844,121.514207,go,0100004200
1035600100,,3,朝陽公園(鈕釦街),25.055745,121.5141319,go,0100004200
1035600220,,4,靜修女中,25.057115,121.515066,go,0100004200
1035600320,,5,雙連市場,25.057042,121.51644,go,0100004200
1035400220,,6,捷運雙連站,25.057346,121.518782,go,0100004200
1044800120,,7,馬偕醫院,25.057731,121.5215461,go,0100004200
1044900100,,8,台泥大樓(馬偕醫院),25.061581,121.5230341,go,0100004200
1045300000,,9,大同公司(晴光市場),25.064288,121.5224722,go,0100004200
1046100000,,10,大同大學,25.0677,121.5228199,go,0100004200
1046100200,,11,臺北市立美術館,25.072224,121.5240266,go,0100004200
1046201620,,12,圓山大飯店,25.07727,121.5281673,go,0100004200
1046200420,,13,中央電台,25.077925,121.5300006,go,0100004200
1046200520,,14,忠烈祠,25.078004,121.5319142,go,0100004200
1046200020,,15,經國七海文化園區,25.077782,121.535397,go,0100004200
1046200920,,16,空軍司令部,25.079399,121.5403116,go,0100004200
1046201400,,17,通北街口,25.079985,121.54125,go,0100004200
1046201860,,18,圓山新城一,25.082444,121.540087,go,0100004200
1046200100,,19,力行新村,25.084092,121.5380292,go,0100004200
1046201740,,20,圓山新城二,25.0829,121.5398705,go,0100004200
1046201440,,21,通北街口,25.07998,121.541188,go,0100004200
1046500120,,22,大直高中,25.07949,121.54255,go,0100004200
1046500220,,23,大直國小,25.079711,121.5453154,go,0100004200
1046500520,,24,捷運大直站,25.080216,121.5479855,go,0100004200
1046300000,,25,植福宮,25.081609,121.5488002,go,0100004200
1046400100,,26,自強隧道(大直教會),25.083737,121.5493072,go,0100004200
1046400020,,27,自強隧道,25.085862,121.5518959,go,0100004200
1046400320,,28,捷運劍南路站,25.08484,121.555253,go,0100004200
1144600120,,29,美麗華,25.084538,121.5581969,go,0100004200
1046201940,,30,敬業四路,25.081855,121.5584464,go,0100004200
1046600660,,31,大直美堤花園二,25.08002,121.5574829,go,0100004200
1034900100,末班已過,1,後車站,25.050269,121.5135627,come,0100004200
1035000300,末班已過,2,圓環(重慶),25.052844,121.514207,come,0100004200
1035600100,末班已過,3,朝陽公園(鈕釦街),25.055745,121.5141319,come,0100004200
1035600220,末班已過,4,靜修女中,25.057115,121.515066,come,0100004200
1035600320,末班已過,5,雙連市場,25.057042,121.51644,come,0100004200
1035400220,末班已過,6,捷運雙連站,25.057346,121.518782,come,0100004200
1044800120,末班已過,7,馬偕醫院,25.057731,121.5215461,come,0100004200
1044900100,末班已過,8,台泥大樓(馬偕醫院),25.061581,121.5230341,come,0100004200
1045300000,進站中,9,大同公司(晴光市場),25.064288,121.5224722,come,0100004200
1046100000,3分鐘,10,大同大學,25.0677,121.5228199,come,0100004200
1046100200,5分鐘,11,臺北市立美術館,25.072224,121.5240266,come,0100004200
1046201620,7分鐘,12,圓山大飯店,25.07727,121.5281673,come,0100004200
1046200420,8分鐘,13,中央電台,25.077925,121.5300006,come,0100004200
1046200520,8分鐘,14,忠烈祠,25.078004,121.5319142,come,0100004200
1046200020,9分鐘,15,經國七海文化園區,25.077782,121.535397,come,0100004200
1046200920,11分鐘,16,空軍司令部,25.079399,121.5403116,come,0100004200
1046201400,12分鐘,17,通北街口,25.079985,121.54125,come,0100004200
1046201860,15分鐘,18,圓山新城一,25.082444,121.540087,come,0100004200
1046200100,14分鐘,19,力行新村,25.084092,121.5380292,come,0100004200
1046201740,12分鐘,20,圓山新城二,25.0829,121.5398705,come,0100004200
1046201440,16分鐘,21,通北街口,25.07998,121.541188,come,0100004200
1046500120,17分鐘,22,大直高中,25.07949,121.54255,come,0100004200
1046500220,20分鐘,23,大直國小,25.079711,121.5453154,come,0100004200
1046500520,21分鐘,24,捷運大直站,25.080216,121.5479855,come,0100004200
1046300000,22分鐘,25,植福宮,25.081609,121.5488002,come,0100004200
1046400100,23分鐘,26,自強隧道(大直教會),25.083737,121.5493072,come,0100004200
1046400020,25分鐘,27,自強隧道,25.085862,121.5518959,come,0100004200
1046400320,26分鐘,28,捷運劍南路站,25.08484,121.555253,come,0100004200
1144600120,27分鐘,29,美麗華,25.084538,121.5581969,come,0100004200
1046201940,28分鐘,30,敬業四路,25.081855,121.5584464,come,0100004200
1046600660,30分鐘,31,大直美堤花園二,25.08002,121.5574829,come,0100004200
1046100200,,1,臺北市立美術館,25.072224,121.5240266,go,0100004220
1046201620,,2,圓山大飯店,25.07727,121.5281673,go,0100004220
1046200420,,3,中央電台,25.077925,121.5300006,go,0100004220
1046200520,,4,忠烈祠,25.078004,121.5319142,go,0100004220
1046200020,,5,經國七海文化園區,25.077782,121.535397,go,0100004220
1046200920,,6,空軍司令部,25.079399,121.5403116,go,0100004220
1046201400,,7,通北街口,25.079985,121.54125,go,0100004220
1046201860,,8,圓山新城一,25.082444,121.540087,go,0100004220
1046200100,,9,力行新村,25.084092,121.5380292,go,0100004220
1046201740,,10,圓山新城二,25.0829,121.5398705,go,0100004220
1046201440,,11,通北街口,25.07998,121.541188,go,0100004220
1046500120,,12,大直高中,25.07949,121.54255,go,0100004220
1046500220,,13,大直國小,25.079711,121.5453154,go,0100004220
1046500520,,14,捷運大直站,25.080216,121.5479855,go,0100004220
1046300000,,15,植福宮,25.081609,121.5488002,go,0100004220
1046400100,,16,自強隧道(大直教會),25.083737,121.5493072,go,0100004220
1046400020,,17,自強隧道,25.085862,121.5518959,go,0100004220
1046400320,,18,捷運劍南路站,25.08484,121.555253,go,0100004220
1144600120,,19,美麗華,25.084538,121.5581969,go,0100004220
1046201940,,20,敬業四路,25.081855,121.5584464,go,0100004220
1046600660,,21,大直美堤花園二,25.08002,121.5574829,go,0100004220
1046100200,44分鐘,1,臺北市立美術館,25.072224,121.5240266,come,0100004220
1046201620,46分鐘,2,圓山大飯店,25.07727,121.5281673,come,0100004220
1046200420,46分鐘,3,中央電台,25.077925,121.5300006,come,0100004220
1046200520,46分鐘,4,忠烈祠,25.078004,121.5319142,come,0100004220
1046200020,47分鐘,5,經國七海文化園區,25.077782,121.535397,come,0100004220
1046200920,49分鐘,6,空軍司令部,25.079399,121.5403116,come,0100004220
1046201400,50分鐘,7,通北街口,25.079985,121.54125,come,0100004220
1046201860,進站中,8,圓山新城一,25.082444,121.540087,come,0100004220
1046200100,進站中,9,力行新村,25.084092,121.5380292,come,0100004220
1046201740,3分鐘,10,圓山新城二,25.0829,121.5398705,come,0100004220
1046201440,4分鐘,11,通北街口,25.07998,121.541188,come,0100004220
1046500120,5分鐘,12,大直高中,25.07949,121.54255,come,0100004220
1046500220,8分鐘,13,大直國小,25.079711,121.5453154,come,0100004220
1046500520,8分鐘,14,捷運大直站,25.080216,121.5479855,come,0100004220
1046300000,9分鐘,15,植福宮,25.081609,121.5488002,come,0100004220
1046400100,10分鐘,16,自強隧道(大直教會),25.083737,121.5493072,come,0100004220
1046400020,12分鐘,17,自強隧道,25.085862,121.5518959,come,0100004220
1046400320,13分鐘,18,捷運劍南路站,25.08484,121.555253,come,0100004220
1144600120,14分鐘,19,美麗華,25.084538,121.5581969,come,0100004220
1046201940,15分鐘,20,敬業四路,25.081855,121.5584464,come,0100004220
1046600660,17分鐘,21,大直美堤花園二,25.08002,121.5574829,come,0100004220
1035000300,,1,圓環(重慶),25.052844,121.514207,go,0100004600
1035000220,,2,圓環(南京),25.053651,121.5157054,go,0100004600
1035200120,,3,捷運中山站(志仁高中),25.05271,121.5196749,go,0100004600
1045400120,,4,南京林森路口,25.052069,121.5250604,go,0100004600
1045700220,,5,南京吉林路口,25.052007,121.529855,go,0100004600
1045700420,,6,捷運松江南京站,25.051969,121.5327305,go,0100004600
1048700320,,7,南京建國路口,25.051938,121.5362725,go,0100004600
1048700420,,8,南京龍江路口,25.051888,121.5401689,go,0100004600
1055000120,,9,捷運南京復興站,25.051804,121.5435614,go,0100004600
1055100220,,10,南京敦化路口(小巨蛋),25.051703,121.5483534,go,0100004600
1058000020,,11,南京寧安街口,25.051548,121.5547373,go,0100004600
1056400120,,12,南京三民路口,25.051445,121.5604478,go,0100004600
1056900020,,13,南京公寓(捷運南京三民),25.051276,121.564943,go,0100004600
1057000040,,14,東興路一,25.05013,121.56523,go,0100004600
1107000040,,15,東興路,25.046595,121.566472,go,0100004600
1106600320,,16,興雅國小,25.04552,121.5716977,go,0100004600
1106300120,,17,國民住宅,25.045455,121.574507,go,0100004600
1108900040,,18,永吉松山路口,25.044863,121.5776905,go,0100004600
1106100040,,19,雙永國小,25.042825,121.5777112,go,0100004600
1107700120,,20,永春里(忠孝),25.041101,121.5785081,go,0100004600
1106200220,,21,春光公園,25.042737,121.580888,go,0100004600
1107700440,,22,忠孝大道路口,25.042363,121.581579,go,0100004600
1107700040,,23,大道路,25.040157,121.5827287,go,0100004600
1107800160,,24,信義行政中心(奉天宮),25.03789,121.58325,go,0100004600
1107700660,,25,松友新村,25.037055,121.580964,go,0100004600
1107700560,,26,松山商職(福德),25.036372,121.5787375,go,0100004600
1107800360,,27,國業里,25.03555,121.57704,go,0100004600
1108500060,,28,國稅局宿舍,25.034442,121.575497,go,0100004600
1107300660,,29,捷運象山站,25.033006,121.570056,go,0100004600
1105800400,,30,信義松仁路口(松仁),25.03369,121.5684464,go,0100004600
1107300700,,31,興雅國中,25.03724,121.568534,go,0100004600
1104700340,,32,市政府(松智),25.036834,121.5653434,go,0100004600
1104700720,,33,捷運象山站,25.032648,121.568984,go,0100004600
1108600140,,34,松德站,25.032553,121.5744778,go,0100004600
1035200160,24分鐘,35,捷運中山站(志仁高中),25.052867,121.519866,go,0100004600
1034900160,28分鐘,36,後車站,25.051433,121.5151374,go,0100004600
1035000300,進站中,1,圓環(重慶),25.052844,121.514207,come,0100004600
1035000220,進站中,2,圓環(南京),25.053651,121.5157054,come,0100004600
1035200120,4分鐘,3,捷運中山站(志仁高中),25.05271,121.5196749,come,0100004600
1045400120,7分鐘,4,南京林森路口,25.052069,121.5250604,come,0100004600
1045700220,8分鐘,5,南京吉林路口,25.052007,121.529855,come,0100004600
1045700420,9分鐘,6,捷運松江南京站,25.051969,121.5327305,come,0100004600
1048700320,12分鐘,7,南京建國路口,25.051938,121.5362725,come,0100004600
1048700420,13分鐘,8,南京龍江路口,25.051888,121.5401689,come,0100004600
1055000120,進站中,9,捷運南京復興站,25.051804,121.5435614,come,0100004600
1055100220,進站中,10,南京敦化路口(小巨蛋),25.051703,121.5483534,come,0100004600
1058000020,5分鐘,11,南京寧安街口,25.051548,121.5547373,come,0100004600
1056400120,8分鐘,12,南京三民路口,25.051445,121.5604478,come,0100004600
1056900020,11分鐘,13,南京公寓(捷運南京三民),25.051276,121.564943,come,0100004600
1057000040,12分鐘,14,東興路一,25.05013,121.56523,come,0100004600
1107000040,14分鐘,15,東興路,25.046595,121.566472,come,0100004600
1106600320,18分鐘,16,興雅國小,25.04552,121.5716977,come,0100004600
1106300120,19分鐘,17,國民住宅,25.045455,121.574507,come,0100004600
1108900040,進站中,18,永吉松山路口,25.044863,121.5776905,come,0100004600
1106100040,進站中,19,雙永國小,25.042825,121.5777112,come,0100004600
1107700120,5分鐘,20,永春里(忠孝),25.041101,121.5785081,come,0100004600
1106200220,6分鐘,21,春光公園,25.042737,121.580888,come,0100004600
1107700440,7分鐘,22,忠孝大道路口,25.042363,121.581579,come,0100004600
1107700040,8分鐘,23,大道路,25.040157,121.5827287,come,0100004600
1107800160,9分鐘,24,信義行政中心(奉天宮),25.03789,121.58325,come,0100004600
1107700660,11分鐘,25,松友新村,25.037055,121.580964,come,0100004600
1107700560,12分鐘,26,松山商職(福德),25.036372,121.5787375,come,0100004600
1107800360,13分鐘,27,國業里,25.03555,121.57704,come,0100004600
1108500060,14分鐘,28,國稅局宿舍,25.034442,121.575497,come,0100004600
1107300660,16分鐘,29,捷運象山站,25.033006,121.570056,come,0100004600
1105800400,17分鐘,30,信義松仁路口(松仁),25.03369,121.5684464,come,0100004600
1107300700,18分鐘,31,興雅國中,25.03724,121.568534,come,0100004600
1104700340,25分鐘,32,市政府(松智),25.036834,121.5653434,come,0100004600
1104700720,進站中,33,捷運象山站,25.032648,121.568984,come,0100004600
1108600140,4分鐘,34,松德站,25.032553,121.5744778,come,0100004600
1035200160,,35,捷運中山站(志仁高中),25.052867,121.519866,come,0100004600
1034900160,,36,後車站,25.051433,121.5151374,come,0100004600
1087100100,,1,華中河濱公園,25.017171,121.4960943,go,0100004900
1087200000,,2,果菜市場,25.01987,121.497706,go,0100004900
1086900200,,3,萬大國小,25.02329,121.4998941,go,0100004900
1087800000,,4,德昌街口,25.025045,121.500485,go,0100004900
1087900100,,5,西藏路口,25.028737,121.500599,go,0100004900
1086100600,,6,萬大路,25.030805,121.500635,go,0100004900
1086100400,,7,莒光路口,25.031831,121.5006153,go,0100004900
1085200400,,8,萬華車站,25.033974,121.501128,go,0100004900
1085200360,,9,捷運龍山寺站,25.03538,121.49971,go,0100004900
1085200600,,10,龍山寺(西園),25.03777,121.4996729,go,0100004900
1084800120,,11,桂林路,25.038354,121.5011027,go,0100004900
1085000100,,12,昆明活動中心,25.038711,121.5040228,go,0100004900
1085000220,,13,長沙街,25.040609,121.5056466,go,0100004900
1004200400,,14,捷運西門站,25.040946,121.5082192,go,0100004900
1004300220,,15,寶慶路,25.041491,121.509834,go,0100004900
1004500100,,16,博愛路,25.043262,121.511555,go,0100004900
1004300000,,17,臺北郵局,25.046765,121.5112936,go,0100004900
1004100720,,18,臺北車站(忠孝),25.046563,121.5156894,go,0100004900
1005100340,,19,行政院,25.04483,121.5215079,go,0100004900
1005100420,,20,青島林森路口,25.04373,121.5222785,go,0100004900
1004900000,,21,北平林森路口,25.046759,121.523978,go,0100004900
1044100200,,22,華山公園,25.048095,121.524405,go,0100004900
1044200220,,23,長安林森路口,25.04871,121.5259734,go,0100004900
1044200020,,24,正守公園,25.04814,121.5287092,go,0100004900
1045600220,,25,長安國小(長安),25.048432,121.5308318,go,0100004900
1048600100,,26,捷運松江南京站,25.051799,121.533087,go,0100004900
1045900300,,27,長春松江路口,25.054536,121.5331386,go,0100004900
1048300200,,28,捷運行天宮站(松江路),25.057613,121.5331766,go,0100004900
1048300100,,29,松江新村,25.061268,121.5333498,go,0100004900
1048400020,,30,民權建國路口,25.062368,121.5364984,go,0100004900
1047600420,,31,民權龍江路口,25.062325,121.540554,go,0100004900
1047600320,,32,民權復興路口,25.062271,121.5438692,go,0100004900
1047600200,,33,五常街口,25.064149,121.5444202,go,0100004900
1047600060,,34,下埤里,25.06719,121.543488,go,0100004900
1047300260,,35,第二果菜市場,25.068245,121.538856,go,0100004900
1047200461,,36,臺北漁市,25.068267,121.537216,go,0100004900
1047300100,,37,建北站,25.067193,121.534472,go,0100004900
1087100100,10分鐘,1,華中河濱公園,25.017171,121.4960943,come,0100004900
1087200000,11分鐘,2,果菜市場,25.01987,121.497706,come,0100004900
1086900200,13分鐘,3,萬大國小,25.02329,121.4998941,come,0100004900
1087800000,14分鐘,4,德昌街口,25.025045,121.500485,come,0100004900
1087900100,15分鐘,5,西藏路口,25.028737,121.500599,come,0100004900
1086100600,17分鐘,6,萬大路,25.030805,121.500635,come,0100004900
1086100400,17分鐘,7,莒光路口,25.031831,121.5006153,come,0100004900
1085200400,18分鐘,8,萬華車站,25.033974,121.501128,come,0100004900
1085200360,進站中,9,捷運龍山寺站,25.03538,121.49971,come,0100004900
1085200600,進站中,10,龍山寺(西園),25.03777,121.4996729,come,0100004900
1084800120,3分鐘,11,桂林路,25.038354,121.5011027,come,0100004900
1085000100,4分鐘,12,昆明活動中心,25.038711,121.5040228,come,0100004900
1085000220,進站中,13,長沙街,25.040609,121.5056466,come,0100004900
1004200400,進站中,14,捷運西門站,25.040946,121.5082192,come,0100004900
1004300220,3分鐘,15,寶慶路,25.041491,121.509834,come,0100004900
1004500100,5分鐘,16,博愛路,25.043262,121.511555,come,0100004900
1004300000,7分鐘,17,臺北郵局,25.046765,121.5112936,come,0100004900
1004100720,8分鐘,18,臺北車站(忠孝),25.046563,121.5156894,come,0100004900
1005100340,11分鐘,19,行政院,25.04483,121.5215079,come,0100004900
1005100420,13分鐘,20,青島林森路口,25.04373,121.5222785,come,0100004900
1004900000,15分鐘,21,北平林森路口,25.046759,121.523978,come,0100004900
1044100200,17分鐘,22,華山公園,25.048095,121.524405,come,0100004900
1044200220,18分鐘,23,長安林森路口,25.04871,121.5259734,come,0100004900
1044200020,進站中,24,正守公園,25.04814,121.5287092,come,0100004900
1045600220,進站中,25,長安國小(長安),25.048432,121.5308318,come,0100004900
1048600100,3分鐘,26,捷運松江南京站,25.051799,121.533087,come,0100004900
1045900300,4分鐘,27,長春松江路口,25.054536,121.5331386,come,0100004900
1048300200,7分鐘,28,捷運行天宮站(松江路),25.057613,121.5331766,come,0100004900
1048300100,7分鐘,29,松江新村,25.061268,121.5333498,come,0100004900
1048400020,11分鐘,30,民權建國路口,25.062368,121.5364984,come,0100004900
1047600420,12分鐘,31,民權龍江路口,25.062325,121.540554,come,0100004900
1047600320,進站中,32,民權復興路口,25.062271,121.5438692,come,0100004900
1047600200,進站中,33,五常街口,25.064149,121.5444202,come,0100004900
1047600060,3分鐘,34,下埤里,25.06719,121.543488,come,0100004900
1047300260,4分鐘,35,第二果菜市場,25.068245,121.538856,come,0100004900
1047200461,5分鐘,36,臺北漁市,25.068267,121.537216,come,0100004900
1047300100,9分鐘,37,建北站,25.067193,121.534472,come,0100004900
2358300300,,1,秀山國小,24.994738,121.5220764,go,0400005100
2358000000,,2,自立路,24.996558,121.5225142,go,0400005100
2345300400,,3,民生路,24.998297,121.5228225,go,0400005100
2345100360,,4,秀朗國小,25.00002,121.5208,go,0400005100
2345300760,,5,得和路,25.000302,121.518277,go,0400005100
2345501100,,6,得和路口,25.000549,121.5177138,go,0400005100
2345500600,,7,永和國小,25.002456,121.5175452,go,0400005100
2345501300,,8,福和里,25.006519,121.517121,go,0400005100
2345000920,,9,福和路,25.007465,121.51865,go,0400005100
2344800501,,10,永和區公所(竹林路),25.009245,121.520668,go,0400005100
2344100700,,11,網溪國小一,25.011264,121.520115,go,0400005100
2344801100,,12,網溪國小,25.013451,121.518655,go,0400005100
2344100360,,13,竹林路口,25.014315,121.517667,go,0400005100
2344300940,,14,捷運頂溪站,25.01443,121.5155769,go,0400005100
2344400140,,15,中興街口,25.011595,121.5147464,go,0400005100
2344300060,,16,中山路口,25.010755,121.5126727,go,0400005100
2344600360,,17,永平高中,25.009358,121.50956,go,0400005100
2344600860,,18,保生路口,25.00674,121.5063928,go,0400005100
2355400160,,19,佳和公園,25.004997,121.504269,go,0400005100
2355400260,,20,南山高中(中山路),25.003392,121.502349,go,0400005100
2355300860,,21,廟美里,25.002803,121.5005133,go,0400005100
2355800060,,22,一江新村,25.002636,121.498247,go,0400005100
2355701060,,23,捷運中和站(中山路),25.002436,121.496157,go,0400005100
2355700760,,24,家美工業區,25.00229,121.493465,go,0400005100
2355700360,,25,中和保養廠,25.003079,121.491807,go,0400005100
2355801170,,26,捷運橋和站,25.004414,121.490533,go,0400005100
2355800560,,27,中山錦和路口,25.005005,121.4863334,go,0400005100
2354700160,,28,中正中山路口,25.005232,121.482114,go,0400005100
2354500800,,29,積穗(員山路),25.006676,121.479854,go,0400005100
2354500400,,30,松下電子,25.008669,121.47932,go,0400005100
2206900200,,31,自來水公司,25.0127,121.479068,go,0400005100
2206900300,,32,長壽里,25.015381,121.479287,go,0400005100
2206700460,,33,埔墘(中山路),25.018012,121.4780283,go,0400005100
2206700560,,34,埔墘國小,25.01679,121.47594,go,0400005100
2206700060,,35,中山民生路口,25.016073,121.47433,go,0400005100
2206700360,,36,西安里,25.015119,121.47229,go,0400005100
2206500060,,37,中山漢生路口,25.014023,121.470005,go,0400005100
2206500760,,38,新北市政府(中山路),25.012734,121.46719,go,0400005100
2206500260,,39,民權路口,25.011017,121.46352,go,0400005100
2206301240,,40,捷運府中站,25.009314,121.459946,go,0400005100
2205500560,,41,南門街,25.008773,121.457226,go,0400005100
2206000360,,42,板橋夜市(南雅南路),25.006528,121.4560447,go,0400005100
2206000140,,43,光華商職,25.00238,121.453862,go,0400005100
2206000540,,44,捷運亞東醫院站,24.998579,121.452517,go,0400005100
2206000240,,45,亞東科技大學(南雅南路),24.995799,121.451532,go,0400005100
2206000460,,46,南雅站,24.993821,121.450379,go,0400005100
2358300300,末班已過,1,秀山國小,24.994738,121.5220764,come,0400005100
2358000000,末班已過,2,自立路,24.996558,121.5225142,come,0400005100
2345300400,末班已過,3,民生路,24.998297,121.5228225,come,0400005100
2345100360,末班已過,4,秀朗國小,25.00002,121.5208,come,0400005100
2345300760,末班已過,5,得和路,25.000302,121.518277,come,0400005100
2345501100,末班已過,6,得和路口,25.000549,121.5177138,come,0400005100
2345500600,末班已過,7,永和國小,25.002456,121.5175452,come,0400005100
2345501300,末班已過,8,福和里,25.006519,121.517121,come,0400005100
2345000920,末班已過,9,福和路,25.007465,121.51865,come,0400005100
2344800501,末班已過,10,永和區公所(竹林路),25.009245,121.520668,come,0400005100
2344100700,末班已過,11,網溪國小一,25.011264,121.520115,come,0400005100
2344801100,末班已過,12,網溪國小,25.013451,121.518655,come,0400005100
2344100360,末班已過,13,竹林路口,25.014315,121.517667,come,0400005100
2344300940,末班已過,14,捷運頂溪站,25.01443,121.5155769,come,0400005100
2344400140,末班已過,15,中興街口,25.011595,121.5147464,come,0400005100
2344300060,末班已過,16,中山路口,25.010755,121.5126727,come,0400005100
2344600360,末班已過,17,永平高中,25.009358,121.50956,come,0400005100
2344600860,末班已過,18,保生路口,25.00674,121.5063928,come,0400005100
2355400160,末班已過,19,佳和公園,25.004997,121.504269,come,0400005100
2355400260,末班已過,20,南山高中(中山路),25.003392,121.502349,come,0400005100
2355300860,末班已過,21,廟美里,25.002803,121.5005133,come,0400005100
2355800060,末班已過,22,一江新村,25.002636,121.498247,come,0400005100
2355701060,末班已過,23,捷運中和站(中山路),25.002436,121.496157,come,0400005100
2355700760,末班已過,24,家美工業區,25.00229,121.493465,come,0400005100
2355700360,末班已過,25,中和保養廠,25.003079,121.491807,come,0400005100
2355801170,末班已過,26,捷運橋和站,25.004414,121.490533,come,0400005100
2355800560,末班已過,27,中山錦和路口,25.005005,121.4863334,come,0400005100
2354700160,末班已過,28,中正中山路口,25.005232,121.482114,come,0400005100
2354500800,末班已過,29,積穗(員山路),25.006676,121.479854,come,0400005100
2354500400,末班已過,30,松下電子,25.008669,121.47932,come,0400005100
2206900200,末班已過,31,自來水公司,25.0127,121.479068,come,0400005100
2206900300,末班已過,32,長壽里,25.015381,121.479287,come,0400005100
2206700460,末班已過,33,埔墘(中山路),25.018012,121.4780283,come,0400005100
2206700560,末班已過,34,埔墘國小,25.01679,121.47594,come,0400005100
2206700060,末班已過,35,中山民生路口,25.016073,121.47433,come,0400005100
2206700360,末班已過,36,西安里,25.015119,121.47229,come,0400005100
2206500060,末班已過,37,中山漢生路口,25.014023,121.470005,come,0400005100
2206500760,末班已過,38,新北市政府(中山路),25.012734,121.46719,come,0400005100
2206500260,末班已過,39,民權路口,25.011017,121.46352,come,0400005100
2206301240,末班已過,40,捷運府中站,25.009314,121.459946,come,0400005100
2205500560,末班已過,41,南門街,25.008773,121.457226,come,0400005100
2206000360,末班已過,42,板橋夜市(南雅南路),25.006528,121.4560447,come,0400005100
2206000140,末班已過,43,光華商職,25.00238,121.453862,come,0400005100
2206000540,末班已過,44,捷運亞東醫院站,24.998579,121.452517,come,0400005100
2206000240,末班已過,45,亞東科技大學(南雅南路),24.995799,121.451532,come,0400005100
2206000460,末班已過,46,南雅站,24.993821,121.450379,come,0400005100
1034900100,,1,後車站,25.050269,121.5135627,go,0100005200
1035000300,,2,圓環(重慶),25.052844,121.514207,go,0100005200
1035000220,,3,圓環(南京),25.053651,121.5157054,go,0100005200
1035200120,,4,捷運中山站(志仁高中),25.05271,121.5196749,go,0100005200
1045400120,,5,南京林森路口,25.052069,121.5250604,go,0100005200
1044200340,,6,南京新生北路口,25.05109,121.52774,go,0100005200
1044300240,,7,長安新生北路口,25.04914,121.5287,go,0100005200
1045600220,,8,長安國小(長安),25.048432,121.5308318,go,0100005200
1045500020,,9,長安東路二段,25.04839,121.5334062,go,0100005200
1049100120,,10,中山女高,25.04831,121.53607,go,0100005200
1048900420,,11,進安公園,25.046247,121.537785,go,0100005200
1049200220,,12,中影八德大樓,25.046706,121.5408273,go,0100005200
1049200020,,13,中崙,25.047208,121.54312,go,0100005200
1055600220,,14,臺安醫院,25.048142,121.5462971,go,0100005200
1055700240,,15,市民敦化路口,25.045271,121.548797,go,0100005200
1069000140,,16,忠孝敦化路口,25.041865,121.5487541,go,0100005200
1068500140,,17,仁愛敦化路口,25.039043,121.548697,go,0100005200
1068100140,,18,信義敦化路口,25.033775,121.548726,go,0100005200
1068200040,,19,大安國中,25.032377,121.5484869,go,0100005200
1068200140,,20,成功國宅,25.028411,121.5484575,go,0100005200
1055700340,,21,鳳雛公園,25.026331,121.5486689,go,0100005200
1066900060,,22,臥龍街,25.024707,121.5474978,go,0100005200
1067000160,,23,國立臺北教育大學,25.024826,121.5448151,go,0100005200
1066400460,,24,復興南路口,25.025103,121.5423761,go,0100005200
1066400160,,25,國北教大實小,25.02532,121.54065,go,0100005200
1066400660,,26,龍門國中(和平),25.025527,121.5391542,go,0100005200
1066000240,,27,龍安國小(公務人力發展學院),25.024664,121.5345198,go,0100005200
1066000140,,28,臺大綜合體育館,25.02155,121.5341136,go,0100005200
1067300840,,29,臺大,25.018239,121.533435,go,0100005200
1009000140,,30,捷運公館站,25.014321,121.534722,go,0100005200
1167700041,,31,師大分部,25.00814,121.538064,go,0100005200
1168100020,,32,武功國小(興隆),25.004127,121.5398685,go,0100005200
1168000020,,33,景明街口,25.001631,121.5422579,go,0100005200
1034900100,36分鐘,1,後車站,25.050269,121.5135627,come,0100005200
1035000300,36分鐘,2,圓環(重慶),25.052844,121.514207,come,0100005200
1035000220,39分鐘,3,圓環(南京),25.053651,121.5157054,come,0100005200
1035200120,41分鐘,4,捷運中山站(志仁高中),25.05271,121.5196749,come,0100005200
1045400120,進站中,5,南京林森路口,25.052069,121.5250604,come,0100005200
1044200340,5分鐘,6,南京新生北路口,25.05109,121.52774,come,0100005200
1044300240,6分鐘,7,長安新生北路口,25.04914,121.5287,come,0100005200
1045600220,7分鐘,8,長安國小(長安),25.048432,121.5308318,come,0100005200
1045500020,8分鐘,9,長安東路二段,25.04839,121.5334062,come,0100005200
1049100120,9分鐘,10,中山女高,25.04831,121.53607,come,0100005200
1048900420,15分鐘,11,進安公園,25.046247,121.537785,come,0100005200
1049200220,16分鐘,12,中影八德大樓,25.046706,121.5408273,come,0100005200
1049200020,17分鐘,13,中崙,25.047208,121.54312,come,0100005200
1055600220,進站中,14,臺安醫院,25.048142,121.5462971,come,0100005200
1055700240,4分鐘,15,市民敦化路口,25.045271,121.548797,come,0100005200
1069000140,5分鐘,16,忠孝敦化路口,25.041865,121.5487541,come,0100005200
1068500140,8分鐘,17,仁愛敦化路口,25.039043,121.548697,come,0100005200
1068100140,11分鐘,18,信義敦化路口,25.033775,121.548726,come,0100005200
1068200040,12分鐘,19,大安國中,25.032377,121.5484869,come,0100005200
1068200140,14分鐘,20,成功國宅,25.028411,121.5484575,come,0100005200
1055700340,16分鐘,21,鳳雛公園,25.026331,121.5486689,come,0100005200
1066900060,17分鐘,22,臥龍街,25.024707,121.5474978,come,0100005200
1067000160,18分鐘,23,國立臺北教育大學,25.024826,121.5448151,come,0100005200
1066400460,21分鐘,24,復興南路口,25.025103,121.5423761,come,0100005200
1066400160,22分鐘,25,國北教大實小,25.02532,121.54065,come,0100005200
1066400660,23分鐘,26,龍門國中(和平),25.025527,121.5391542,come,0100005200
1066000240,27分鐘,27,龍安國小(公務人力發展學院),25.024664,121.5345198,come,0100005200
1066000140,28分鐘,28,臺大綜合體育館,25.02155,121.5341136,come,0100005200
1067300840,進站中,29,臺大,25.018239,121.533435,come,0100005200
1009000140,進站中,30,捷運公館站,25.014321,121.534722,come,0100005200
1167700041,3分鐘,31,師大分部,25.00814,121.538064,come,0100005200
1168100020,5分鐘,32,武功國小(興隆),25.004127,121.5398685,come,0100005200
1168000020,7分鐘,33,景明街口,25.001631,121.5422579,come,0100005200
1057800160,,1,富泰里,25.057201,121.5656156,go,0100005300
1058200040,,2,三民健康路口(西松高中),25.055245,121.5635808,go,0100005300
1058200240,,3,西松國小,25.05279,121.56371,go,0100005300
1056900021,,4,南京公寓(捷運南京三民),25.051255,121.5665356,go,0100005300
1057100020,,5,南松山(南京),25.05115,121.56915,go,0100005300
1058500220,,6,饒河街觀光夜市(塔悠),25.050545,121.571331,go,0100005300
1056600020,,7,松山農會,25.049902,121.5738483,go,0100005300
1056700020,,8,松山車站(八德),25.049975,121.5772464,go,0100005300
1056700120,,9,松山車站,25.049806,121.578206,go,0100005300
1157700020,,10,玉成里,25.050867,121.5809831,go,0100005300
1147100420,,11,週美里,25.05609,121.5828479,go,0100005300
1147000220,,12,新明路,25.057224,121.5854194,go,0100005300
1147100020,,13,台北企業總部園區,25.057943,121.587031,go,0100005300
1147100620,,14,新明成功路口,25.06008,121.590623,go,0100005300
1148400220,,15,石潭公園,25.06211,121.59311,go,0100005300
1148400820,,16,蘆洲里,25.062151,121.5972045,go,0100005300
1148400320,,17,安康路,25.063137,121.6011887,go,0100005300
1148400020,,18,內湖焚化廠(安康),25.063054,121.6030952,go,0100005300
1148500300,,19,捷運東湖站(南湖高中),25.067207,121.6115735,go,0100005300
1148700020,,20,五分社區,25.068686,121.6143563,go,0100005300
1148700120,,21,東湖國小,25.068103,121.61672,go,0100005300
1147800100,,22,東湖社區,25.069547,121.618788,go,0100005300
1148000800,,23,康樂街,25.07119,121.6191996,go,0100005300
1148000600,,24,東湖國中,25.072872,121.6194588,go,0100005300
1148000000,,25,五分埤,25.076133,121.6211888,go,0100005300
1148000700,,26,康湖隧道口(白馬山莊),25.07715,121.62288,go,0100005300
2215400220,,27,忠三街口,25.07844,121.624021,go,0100005300
1057800160,進站中,1,富泰里,25.057201,121.5656156,come,0100005300
1058200040,5分鐘,2,三民健康路口(西松高中),25.055245,121.5635808,come,0100005300
1058200240,7分鐘,3,西松國小,25.05279,121.56371,come,0100005300
1056900021,10分鐘,4,南京公寓(捷運南京三民),25.051255,121.5665356,come,0100005300
1057100020,11分鐘,5,南松山(南京),25.05115,121.56915,come,0100005300
1058500220,13分鐘,6,饒河街觀光夜市(塔悠),25.050545,121.571331,come,0100005300
1056600020,15分鐘,7,松山農會,25.049902,121.5738483,come,0100005300
1056700020,16分鐘,8,松山車站(八德),25.049975,121.5772464,come,0100005300
1056700120,17分鐘,9,松山車站,25.049806,121.578206,come,0100005300
1157700020,19分鐘,10,玉成里,25.050867,121.5809831,come,0100005300
1147100420,24分鐘,11,週美里,25.05609,121.5828479,come,0100005300
1147000220,25分鐘,12,新明路,25.057224,121.5854194,come,0100005300
1147100020,26分鐘,13,台北企業總部園區,25.057943,121.587031,come,0100005300
1147100620,26分鐘,14,新明成功路口,25.06008,121.590623,come,0100005300
1148400220,29分鐘,15,石潭公園,25.06211,121.59311,come,0100005300
1148400820,30分鐘,16,蘆洲里,25.062151,121.5972045,come,0100005300
1148400320,30分鐘,17,安康路,25.063137,121.6011887,come,0100005300
1148400020,31分鐘,18,內湖焚化廠(安康),25.063054,121.6030952,come,0100005300
1148500300,33分鐘,19,捷運東湖站(南湖高中),25.067207,121.6115735,come,0100005300
1148700020,36分鐘,20,五分社區,25.068686,121.6143563,come,0100005300
1148700120,39分鐘,21,東湖國小,25.068103,121.61672,come,0100005300
1147800100,43分鐘,22,東湖社區,25.069547,121.618788,come,0100005300
1148000800,44分鐘,23,康樂街,25.07119,121.6191996,come,0100005300
1148000600,44分鐘,24,東湖國中,25.072872,121.6194588,come,0100005300
1148000000,46分鐘,25,五分埤,25.076133,121.6211888,come,0100005300
1148000700,46分鐘,26,康湖隧道口(白馬山莊),25.07715,121.62288,come,0100005300
2215400220,47分鐘,27,忠三街口,25.07844,121.624021,come,0100005300
2358300300,,1,秀山國小,24.994738,121.5220764,go,0400005700
2358000000,,2,自立路,24.996558,121.5225142,go,0400005700
2345300400,,3,民生路,24.998297,121.5228225,go,0400005700
2345100200,,4,永元路,25.001283,121.5223852,go,0400005700
2345000860,,5,福和國中,25.003349,121.5214636,go,0400005700
2345000060,,6,永利路,25.005502,121.5188342,go,0400005700
2345501300,,7,福和里,25.006519,121.517121,go,0400005700
2345000920,,8,福和路,25.007465,121.51865,go,0400005700
2344800501,,9,永和區公所(竹林路),25.009245,121.520668,go,0400005700
2344100700,,10,網溪國小一,25.011264,121.520115,go,0400005700
2344801100,,11,網溪國小,25.013451,121.518655,go,0400005700
2344100360,,12,竹林路口,25.014315,121.517667,go,0400005700
2344300940,,13,捷運頂溪站,25.01443,121.5155769,go,0400005700
2344400140,,14,中興街口,25.011595,121.5147464,go,0400005700
2344500840,,15,樂華夜市,25.00839,121.51386,go,0400005700
2344500440,,16,永和路口,25.005687,121.5128613,go,0400005700
2357400460,,17,捷運永安市場站,25.002521,121.510832,go,0400005700
2357400540,,18,華泰新城,25.000533,121.509035,go,0400005700
2357500760,,19,雙和里,24.99973,121.5068521,go,0400005700
2357500660,,20,南山高中,24.999775,121.505547,go,0400005700
2357500060,,21,中和派出所,24.999855,121.5028195,go,0400005700
2357500260,,22,中和廟口,25.000814,121.5009077,go,0400005700
2355300060,,23,連城中和路口,25.002187,121.498749,go,0400005700
2355900560,,24,連城景平路(暫時裁撤),24.999589,121.4961564,go,0400005700
2355300560,,25,中和國稅局,24.998256,121.4948985,go,0400005700
2355100160,,26,台貿一村,24.99673,121.4922543,go,0400005700
2355100560,,27,連城錦和路口(暫時裁撤),24.996453,121.4902015,go,0400005700
2355300460,,28,連城中正路口,24.996296,121.484217,go,0400005700
2355100461,,29,連城路,24.995775,121.482763,go,0400005700
2354800000,,30,中和高中(員山路),24.996623,121.481263,go,0400005700
2354800200,,31,員山派出所,24.99794,121.4813853,go,0400005700
2355200400,,32,積穗國中,25.0006,121.4813353,go,0400005700
2354700300,,33,員山公園,25.003468,121.4810458,go,0400005700
2354500860,,34,積穗,25.006146,121.479221,go,0400005700
2354400160,,35,板橋監理站,25.005992,121.475774,go,0400005700
2354601060,,36,環球購物中心,25.00638,121.47349,go,0400005700
2206501060,,37,國泰街口,25.006825,121.4707676,go,0400005700
2206500960,,38,電信訓練所,25.007745,121.468177,go,0400005700
2206500160,,39,民族區運路口,25.008642,121.4656708,go,0400005700
2206500360,,40,板橋外站,25.009662,121.462406,go,0400005700
2206300950,,41,後站商圈,25.008843,121.460535,go,0400005700
2206301340,,42,鄉雲里,25.005426,121.459568,go,0400005700
2206301861,,43,福星里,25.002721,121.459747,go,0400005700
2206300160,,44,仁愛新村,24.999454,121.458052,go,0400005700
2206302060,,45,豫章工商,24.997365,121.4570296,go,0400005700
2206300360,,46,亞東科技大學,24.995276,121.4532287,go,0400005700
2206000460,,47,南雅站,24.993821,121.450379,go,0400005700
2358300300,進站中,1,秀山國小,24.994738,121.5220764,come,0400005700
2358000000,3分鐘,2,自立路,24.996558,121.5225142,come,0400005700
2345300400,4分鐘,3,民生路,24.998297,121.5228225,come,0400005700
2345100200,6分鐘,4,永元路,25.001283,121.5223852,come,0400005700
2345000860,11分鐘,5,福和國中,25.003349,121.5214636,come,0400005700
2345000060,14分鐘,6,永利路,25.005502,121.5188342,come,0400005700
2345501300,14分鐘,7,福和里,25.006519,121.517121,come,0400005700
2345000920,17分鐘,8,福和路,25.007465,121.51865,come,0400005700
2344800501,19分鐘,9,永和區公所(竹林路),25.009245,121.520668,come,0400005700
2344100700,進站中,10,網溪國小一,25.011264,121.520115,come,0400005700
2344801100,進站中,11,網溪國小,25.013451,121.518655,come,0400005700
2344100360,3分鐘,12,竹林路口,25.014315,121.517667,come,0400005700
2344300940,4分鐘,13,捷運頂溪站,25.01443,121.5155769,come,0400005700
2344400140,6分鐘,14,中興街口,25.011595,121.5147464,come,0400005700
2344500840,8分鐘,15,樂華夜市,25.00839,121.51386,come,0400005700
2344500440,10分鐘,16,永和路口,25.005687,121.5128613,come,0400005700
2357400460,進站中,17,捷運永安市場站,25.002521,121.510832,come,0400005700
2357400540,3分鐘,18,華泰新城,25.000533,121.509035,come,0400005700
2357500760,5分鐘,19,雙和里,24.99973,121.5068521,come,0400005700
2357500660,6分鐘,20,南山高中,24.999775,121.505547,come,0400005700
2357500060,6分鐘,21,中和派出所,24.999855,121.5028195,come,0400005700
2357500260,8分鐘,22,中和廟口,25.000814,121.5009077,come,0400005700
2355300060,13分鐘,23,連城中和路口,25.002187,121.498749,come,0400005700
2355900560,今日未營運,24,連城景平路(暫時裁撤),24.999589,121.4961564,come,0400005700
2355300560,進站中,25,中和國稅局,24.998256,121.4948985,come,0400005700
2355100160,4分鐘,26,台貿一村,24.99673,121.4922543,come,0400005700
2355100560,今日未營運,27,連城錦和路口(暫時裁撤),24.996453,121.4902015,come,0400005700
2355300460,3分鐘,28,連城中正路口,24.996296,121.484217,come,0400005700
2355100461,6分鐘,29,連城路,24.995775,121.482763,come,0400005700
2354800000,8分鐘,30,中和高中(員山路),24.996623,121.481263,come,0400005700
2354800200,10分鐘,31,員山派出所,24.99794,121.4813853,come,0400005700
2355200400,11分鐘,32,積穗國中,25.0006,121.4813353,come,0400005700
2354700300,13分鐘,33,員山公園,25.003468,121.4810458,come,0400005700
2354500860,14分鐘,34,積穗,25.006146,121.479221,come,0400005700
2354400160,15分鐘,35,板橋監理站,25.005992,121.475774,come,0400005700
2354601060,16分鐘,36,環球購物中心,25.00638,121.47349,come,0400005700
2206501060,20分鐘,37,國泰街口,25.006825,121.4707676,come,0400005700
2206500960,21分鐘,38,電信訓練所,25.007745,121.468177,come,0400005700
2206500160,23分鐘,39,民族區運路口,25.008642,121.4656708,come,0400005700
2206500360,24分鐘,40,板橋外站,25.009662,121.462406,come,0400005700
2206300950,進站中,41,後站商圈,25.008843,121.460535,come,0400005700
2206301340,4分鐘,42,鄉雲里,25.005426,121.459568,come,0400005700
2206301861,6分鐘,43,福星里,25.002721,121.459747,come,0400005700
2206300160,6分鐘,44,仁愛新村,24.999454,121.458052,come,0400005700
2206302060,進站中,45,豫章工商,24.997365,121.4570296,come,0400005700
2206300360,進站中,46,亞東科技大學,24.995276,121.4532287,come,0400005700
2206000460,4分鐘,47,南雅站,24.993821,121.450379,come,0400005700
1087100100,,1,華中河濱公園,25.017171,121.4960943,go,0400006200
1087200000,,2,果菜市場,25.01987,121.497706,go,0400006200
1086900200,,3,萬大國小,25.02329,121.4998941,go,0400006200
1087800000,,4,德昌街口,25.025045,121.500485,go,0400006200
1087900100,,5,西藏路口,25.028737,121.500599,go,0400006200
1086100600,,6,萬大路,25.030805,121.500635,go,0400006200
1086100400,,7,莒光路口,25.031831,121.5006153,go,0400006200
1085200400,,8,萬華車站,25.033974,121.501128,go,0400006200
1085200700,,9,龍山寺(康定),25.036314,121.501464,go,0400006200
1084900400,,10,祖師廟(康定),25.039681,121.5019792,go,0400006200
1084500200,,11,西門國小(臺大醫院北護分院),25.042344,121.502463,go,0400006200
2414400800,,12,集美街口,25.05212,121.488738,go,0400006200
2414400200,,13,三重國民運動中心,25.054161,121.4885856,go,0400006200
2414400700,,14,集美國小,25.055666,121.4881563,go,0400006200
2414400620,,15,菜寮(重新路),25.057218,121.487921,go,0400006200
2414301020,,16,捷運菜寮站,25.059073,121.4905425,go,0400006200
2414300120,,17,中山藝術公園,25.060432,121.4925214,go,0400006200
2414300020,,18,大同路口,25.061403,121.49493,go,0400006200
2414700300,,19,正義重新路口,25.063532,121.4975969,go,0400006200
2414700001,,20,長元西街口,25.065218,121.497108,go,0400006200
2414600200,,21,長壽西街口,25.067084,121.496507,go,0400006200
2414600001,,22,三安里,25.068848,121.496013,go,0400006200
2414600700,,23,龍門路口,25.070313,121.495103,go,0400006200
2414600620,,24,德林寺(龍門路),25.072137,121.4957652,go,0400006200
2415000320,,25,仁愛街口,25.072835,121.497903,go,0400006200
2415000620,,26,仁興街口,25.073365,121.4999776,go,0400006200
2414900720,,27,龍門路底,25.074155,121.5023487,go,0400006200
2415000700,,28,河邊北街(慈武宮),25.07583,121.5020419,go,0400006200
2415000400,,29,仁義街,25.078109,121.4987595,go,0400006200
2415100100,,30,五常郵局,25.081917,121.496702,go,0400006200
2415102660,,31,自強五華街口,25.081759,121.494458,go,0400006200
2415100400,,32,五華街,25.083191,121.492158,go,0400006200
2415301100,,33,碧華國小,25.084854,121.490605,go,0400006200
2415300200,,34,分子尾,25.087272,121.4879548,go,0400006200
1087200140,7分鐘,35,華中河濱公園,25.01714,121.49565,go,0400006200
1087100100,8分鐘,1,華中河濱公園,25.017171,121.4960943,come,0400006200
1087200000,9分鐘,2,果菜市場,25.01987,121.497706,come,0400006200
1086900200,11分鐘,3,萬大國小,25.02329,121.4998941,come,0400006200
1087800000,11分鐘,4,德昌街口,25.025045,121.500485,come,0400006200
1087900100,13分鐘,5,西藏路口,25.028737,121.500599,come,0400006200
1086100600,14分鐘,6,萬大路,25.030805,121.500635,come,0400006200
1086100400,15分鐘,7,莒光路口,25.031831,121.5006153,come,0400006200
1085200400,進站中,8,萬華車站,25.033974,121.501128,come,0400006200
1085200700,5分鐘,9,龍山寺(康定),25.036314,121.501464,come,0400006200
1084900400,進站中,10,祖師廟(康定),25.039681,121.5019792,come,0400006200
1084500200,3分鐘,11,西門國小(臺大醫院北護分院),25.042344,121.502463,come,0400006200
2414400800,4分鐘,12,集美街口,25.05212,121.488738,come,0400006200
2414400200,7分鐘,13,三重國民運動中心,25.054161,121.4885856,come,0400006200
2414400700,8分鐘,14,集美國小,25.055666,121.4881563,come,0400006200
2414400620,9分鐘,15,菜寮(重新路),25.057218,121.487921,come,0400006200
2414301020,10分鐘,16,捷運菜寮站,25.059073,121.4905425,come,0400006200
2414300120,12分鐘,17,中山藝術公園,25.060432,121.4925214,come,0400006200
2414300020,13分鐘,18,大同路口,25.061403,121.49493,come,0400006200
2414700300,16分鐘,19,正義重新路口,25.063532,121.4975969,come,0400006200
2414700001,17分鐘,20,長元西街口,25.065218,121.497108,come,0400006200
2414600200,18分鐘,21,長壽西街口,25.067084,121.496507,come,0400006200
2414600001,19分鐘,22,三安里,25.068848,121.496013,come,0400006200
2414600700,20分鐘,23,龍門路口,25.070313,121.495103,come,0400006200
2414600620,22分鐘,24,德林寺(龍門路),25.072137,121.4957652,come,0400006200
2415000320,23分鐘,25,仁愛街口,25.072835,121.497903,come,0400006200
2415000620,進站中,26,仁興街口,25.073365,121.4999776,come,0400006200
2414900720,進站中,27,龍門路底,25.074155,121.5023487,come,0400006200
2415000700,3分鐘,28,河邊北街(慈武宮),25.07583,121.5020419,come,0400006200
2415000400,6分鐘,29,仁義街,25.078109,121.4987595,come,0400006200
2415100100,7分鐘,30,五常郵局,25.081917,121.496702,come,0400006200
2415102660,進站中,31,自強五華街口,25.081759,121.494458,come,0400006200
2415100400,進站中,32,五華街,25.083191,121.492158,come,0400006200
2415301100,進站中,33,碧華國小,25.084854,121.490605,come,0400006200
2415300200,4分鐘,34,分子尾,25.087272,121.4879548,come,0400006200
1087200140,,35,華中河濱公園,25.01714,121.49565,come,0400006200
1034900100,,1,後車站,25.050269,121.5135627,go,0100006300
1035000300,,2,圓環(重慶),25.052844,121.514207,go,0100006300
1035600000,,3,民生重慶路口,25.056766,121.5138258,go,0100006300
1035800300,,4,涼州重慶路口,25.060669,121.5135455,go,0100006300
1035900001,,5,捷運大橋頭站,25.062346,121.513712,go,0100006300
1036100320,,6,捷運民權西路站,25.062848,121.5178677,go,0100006300
1045200220,,7,民權中山路口,25.062714,121.5223009,go,0100006300
1045100020,,8,捷運中山國小站,25.062668,121.5253813,go,0100006300
1046800020,,9,民權吉林路口,25.062546,121.5300637,go,0100006300
1046800120,,10,民權松江路口,25.062477,121.5328589,go,0100006300
1048400020,,11,民權建國路口,25.062368,121.5364984,go,0100006300
1047600420,,12,民權龍江路口,25.062325,121.540554,go,0100006300
1047600540,,13,捷運中山國中站,25.06148,121.5440343,go,0100006300
1054500020,,14,民生復興路口,25.057658,121.545777,go,0100006300
1059600020,,15,民生敦化路口,25.057587,121.5479795,go,0100006300
1057400020,,16,公教住宅,25.057928,121.5525641,go,0100006300
1057200020,,17,介壽國中,25.058238,121.5557293,go,0100006300
1057600220,,18,聯合二村,25.058501,121.5592167,go,0100006300
1057300020,,19,民生社區活動中心,25.05864,121.560927,go,0100006300
1058900120,,20,新東街口,25.05902,121.5664423,go,0100006300
1058700140,,21,新東里,25.05789,121.56903,go,0100006300
1058700040,,22,發電所(西松高中),25.055269,121.569528,go,0100006300
1058500140,,23,南松山(塔悠),25.051932,121.570154,go,0100006300
1058500220,,24,饒河街觀光夜市(塔悠),25.050545,121.571331,go,0100006300
1056600020,,25,松山農會,25.049902,121.5738483,go,0100006300
1056700020,,26,松山車站(八德),25.049975,121.5772464,go,0100006300
1157700020,,27,玉成里,25.050867,121.5809831,go,0100006300
1147000100,,28,週美里一,25.05636,121.581944,go,0100006300
1149401900,,29,潭美國小(舊宗),25.057957,121.581074,go,0100006300
1149401300,,30,新湖一路口,25.060542,121.5791317,go,0100006300
1149401400,,31,新湖三路口(台北花市),25.063161,121.577205,go,0100006300
1149401620,,32,新湖行忠路口,25.0641,121.57795,go,0100006300
1149400400,,33,行忠行愛路口,25.065348,121.5793229,go,0100006300
1149400261,,34,瑞湖街口,25.067659,121.576798,go,0100006300
1034900100,8分鐘,1,後車站,25.050269,121.5135627,come,0100006300
1035000300,9分鐘,2,圓環(重慶),25.052844,121.514207,come,0100006300
1035600000,13分鐘,3,民生重慶路口,25.056766,121.5138258,come,0100006300
1035800300,14分鐘,4,涼州重慶路口,25.060669,121.5135455,come,0100006300
1035900001,15分鐘,5,捷運大橋頭站,25.062346,121.513712,come,0100006300
1036100320,進站中,6,捷運民權西路站,25.062848,121.5178677,come,0100006300
1045200220,3分鐘,7,民權中山路口,25.062714,121.5223009,come,0100006300
1045100020,5分鐘,8,捷運中山國小站,25.062668,121.5253813,come,0100006300
1046800020,7分鐘,9,民權吉林路口,25.062546,121.5300637,come,0100006300
1046800120,8分鐘,10,民權松江路口,25.062477,121.5328589,come,0100006300
1048400020,10分鐘,11,民權建國路口,25.062368,121.5364984,come,0100006300
1047600420,進站中,12,民權龍江路口,25.062325,121.540554,come,0100006300
1047600540,進站中,13,捷運中山國中站,25.06148,121.5440343,come,0100006300
1054500020,進站中,14,民生復興路口,25.057658,121.545777,come,0100006300
1059600020,進站中,15,民生敦化路口,25.057587,121.5479795,come,0100006300
1057400020,3分鐘,16,公教住宅,25.057928,121.5525641,come,0100006300
1057200020,4分鐘,17,介壽國中,25.058238,121.5557293,come,0100006300
1057600220,6分鐘,18,聯合二村,25.058501,121.5592167,come,0100006300
1057300020,7分鐘,19,民生社區活動中心,25.05864,121.560927,come,0100006300
1058900120,進站中,20,新東街口,25.05902,121.5664423,come,0100006300
1058700140,進站中,21,新東里,25.05789,121.56903,come,0100006300
1058700040,4分鐘,22,發電所(西松高中),25.055269,121.569528,come,0100006300
1058500140,5分鐘,23,南松山(塔悠),25.051932,121.570154,come,0100006300
1058500220,7分鐘,24,饒河街觀光夜市(塔悠),25.050545,121.571331,come,0100006300
1056600020,8分鐘,25,松山農會,25.049902,121.5738483,come,0100006300
1056700020,10分鐘,26,松山車站(八德),25.049975,121.5772464,come,0100006300
1157700020,進站中,27,玉成里,25.050867,121.5809831,come,0100006300
1147000100,3分鐘,28,週美里一,25.05636,121.581944,come,0100006300
1149401900,6分鐘,29,潭美國小(舊宗),25.057957,121.581074,come,0100006300
1149401300,7分鐘,30,新湖一路口,25.060542,121.5791317,come,0100006300
1149401400,8分鐘,31,新湖三路口(台北花市),25.063161,121.577205,come,0100006300
1149401620,10分鐘,32,新湖行忠路口,25.0641,121.57795,come,0100006300
1149400400,11分鐘,33,行忠行愛路口,25.065348,121.5793229,come,0100006300
1149400261,13分鐘,34,瑞湖街口,25.067659,121.576798,come,0100006300
1108700060,,1,松山車站(松隆),25.048183,121.5789197,go,0100006600
1109000040,,2,松山車站(松山),25.047159,121.577685,go,0100006600
1108900040,,3,永吉松山路口,25.044863,121.5776905,go,0100006600
1106100140,,4,捷運永春站(松山),25.041936,121.577654,go,0100006600
1106100260,,5,捷運永春站(忠孝),25.040967,121.575743,go,0100006600
1106600060,,6,市立工農,25.041089,121.5724391,go,0100006600
1107300441,,7,消防局(松仁),25.038604,121.568284,go,0100006600
1107300740,,8,興雅國中,25.037232,121.5682685,go,0100006600
1105100460,,9,松壽路口,25.035881,121.5666401,go,0100006600
1100100040,,10,101國際購物中心,25.034261,121.565358,go,0100006600
1104700420,,11,信義松仁路口(信義),25.032733,121.5671167,go,0100006600
1165601860,,12,博嘉國小,24.999389,121.5753953,go,0100006600
1165601660,,13,捷運木柵站,24.997735,121.57396,go,0100006600
1165300000,,14,木柵高工,24.996525,121.5707783,go,0100006600
1165300101,,15,捷運萬芳社區站,24.998788,121.569352,go,0100006600
1165400260,,16,萬利街口,24.999065,121.567262,go,0100006600
1169600360,,17,棕櫚泉社區,24.997568,121.5625566,go,0100006600
1169600040,,18,文山運動中心(興隆),24.996275,121.559841,go,0100006600
1169800040,,19,海巡署,24.99467,121.5594932,go,0100006600
1169800140,,20,海巡署一,24.993046,121.558778,go,0100006600
1169800440,,21,興隆山莊,24.991386,121.5586916,go,0100006600
1164900240,,22,馬明潭(再興中學),24.989377,121.5597219,go,0100006600
1164600040,,23,木柵公園,24.98693,121.56074,go,0100006600
1166300040,,24,忠順街口,24.98477,121.5614966,go,0100006600
1166000340,,25,國泰新村(興隆),24.982543,121.5622646,go,0100006600
1165800120,,26,忠順廟,24.982483,121.56469,go,0100006600
1165700120,,27,司法新村,24.98305,121.56636,go,0100006600
1165700320,,28,景文中學,24.983787,121.5685285,go,0100006600
1165700000,,29,木南公園,24.985348,121.570615,go,0100006600
1166400300,,30,指南路口,24.987194,121.5707228,go,0100006600
1165100620,,31,政大,24.98778,121.574739,go,0100006600
1166601020,,32,政大一,24.988319,121.576427,go,0100006600
1166602400,,33,萬興圖書館,24.98897,121.57697,go,0100006600
1165200000,,34,大誠高中,24.990413,121.576905,go,0100006600
1165200360,,35,萬壽橋頭(秀明),24.991863,121.574627,go,0100006600
1165200400,,36,萬壽橋頭(新光),24.992819,121.573853,go,0100006600
1165603300,,37,貓纜動物園站,24.996309,121.576197,go,0100006600
1165601700,,38,捷運動物園站,24.998553,121.579926,go,0100006600
1056700120,9分鐘,39,松山車站,25.049806,121.578206,go,0100006600
1108700060,12分鐘,1,松山車站(松隆),25.048183,121.5789197,come,0100006600
1109000040,14分鐘,2,松山車站(松山),25.047159,121.577685,come,0100006600
1108900040,16分鐘,3,永吉松山路口,25.044863,121.5776905,come,0100006600
1106100140,18分鐘,4,捷運永春站(松山),25.041936,121.577654,come,0100006600
1106100260,4分鐘,5,捷運永春站(忠孝),25.040967,121.575743,come,0100006600
1106600060,5分鐘,6,市立工農,25.041089,121.5724391,come,0100006600
1107300441,3分鐘,7,消防局(松仁),25.038604,121.568284,come,0100006600
1107300740,3分鐘,8,興雅國中,25.037232,121.5682685,come,0100006600
1105100460,6分鐘,9,松壽路口,25.035881,121.5666401,come,0100006600
1100100040,8分鐘,10,101國際購物中心,25.034261,121.565358,come,0100006600
1104700420,11分鐘,11,信義松仁路口(信義),25.032733,121.5671167,come,0100006600
1165601860,20分鐘,12,博嘉國小,24.999389,121.5753953,come,0100006600
1165601660,21分鐘,13,捷運木柵站,24.997735,121.57396,come,0100006600
1165300000,進站中,14,木柵高工,24.996525,121.5707783,come,0100006600
1165300101,進站中,15,捷運萬芳社區站,24.998788,121.569352,come,0100006600
1165400260,3分鐘,16,萬利街口,24.999065,121.567262,come,0100006600
1169600360,4分鐘,17,棕櫚泉社區,24.997568,121.5625566,come,0100006600
1169600040,7分鐘,18,文山運動中心(興隆),24.996275,121.559841,come,0100006600
1169800040,8分鐘,19,海巡署,24.99467,121.5594932,come,0100006600
1169800140,8分鐘,20,海巡署一,24.993046,121.558778,come,0100006600
1169800440,9分鐘,21,興隆山莊,24.991386,121.5586916,come,0100006600
1164900240,10分鐘,22,馬明潭(再興中學),24.989377,121.5597219,come,0100006600
1164600040,12分鐘,23,木柵公園,24.98693,121.56074,come,0100006600
1166300040,13分鐘,24,忠順街口,24.98477,121.5614966,come,0100006600
1166000340,14分鐘,25,國泰新村(興隆),24.982543,121.5622646,come,0100006600
1165800120,16分鐘,26,忠順廟,24.982483,121.56469,come,0100006600
1165700120,17分鐘,27,司法新村,24.98305,121.56636,come,0100006600
1165700320,18分鐘,28,景文中學,24.983787,121.5685285,come,0100006600
1165700000,19分鐘,29,木南公園,24.985348,121.570615,come,0100006600
1166400300,19分鐘,30,指南路口,24.987194,121.5707228,come,0100006600
1165100620,21分鐘,31,政大,24.98778,121.574739,come,0100006600
1166601020,23分鐘,32,政大一,24.988319,121.576427,come,0100006600
1166602400,交管不停,33,萬興圖書館,24.98897,121.57697,come,0100006600
1165200000,24分鐘,34,大誠高中,24.990413,121.576905,come,0100006600
1165200360,25分鐘,35,萬壽橋頭(秀明),24.991863,121.574627,come,0100006600
1165200400,26分鐘,36,萬壽橋頭(新光),24.992819,121.573853,come,0100006600
1165603300,27分鐘,37,貓纜動物園站,24.996309,121.576197,come,0100006600
1165601700,27分鐘,38,捷運動物園站,24.998553,121.579926,come,0100006600
1056700120,,39,松山車站,25.049806,121.578206,come,0100006600
1116200100,,1,士林市場(銘傳會館),25.087844,121.5240042,go,0100006800
1116700050,,2,大南路口,25.089551,121.5222856,go,0100006800
1116800100,,3,士商路,25.091,121.51989,go,0100006800
1116500860,,4,陽明高中,25.092141,121.517889,go,0100006800
1123700060,,5,福美承平路口,25.100605,121.5070565,go,0100006800
1127700060,,6,三王宮,25.100488,121.505557,go,0100006800
1127700760,,7,福美站,25.100447,121.504489,go,0100006800
1127700360,,8,洲美國小,25.101347,121.502767,go,0100006800
1127700800,,9,洲美街219號,25.1017,121.5015276,go,0100006800
1127700100,,10,洲美里,25.102928,121.500102,go,0100006800
1116300040,27分鐘,11,士林國小,25.094058,121.5247893,go,0100006800
1116300541,28分鐘,12,小北街,25.090999,121.526725,go,0100006800
1116200500,30分鐘,13,捷運劍潭站(北藝中心),25.084914,121.524923,go,0100006800
1116200100,36分鐘,1,士林市場(銘傳會館),25.087844,121.5240042,come,0100006800
1116700050,38分鐘,2,大南路口,25.089551,121.5222856,come,0100006800
1116800100,40分鐘,3,士商路,25.091,121.51989,come,0100006800
1116500860,41分鐘,4,陽明高中,25.092141,121.517889,come,0100006800
1123700060,46分鐘,5,福美承平路口,25.100605,121.5070565,come,0100006800
1127700060,47分鐘,6,三王宮,25.100488,121.505557,come,0100006800
1127700760,48分鐘,7,福美站,25.100447,121.504489,come,0100006800
1127700360,49分鐘,8,洲美國小,25.101347,121.502767,come,0100006800
1127700800,49分鐘,9,洲美街219號,25.1017,121.5015276,come,0100006800
1127700100,51分鐘,10,洲美里,25.102928,121.500102,come,0100006800
1116300040,,11,士林國小,25.094058,121.5247893,come,0100006800
1116300541,,12,小北街,25.090999,121.526725,come,0100006800
1116200500,,13,捷運劍潭站(北藝中心),25.084914,121.524923,come,0100006800
1046600840,,1,敬業三路一,25.083024,121.556223,go,0100007200
1046600940,,2,敬業三路二,25.081246,121.5562232,go,0100007200
1046201320,,3,大直美堤花園三,25.079873,121.5566492,go,0100007200
1046601000,,4,敬業四路,25.081142,121.558531,go,0100007200
1046400260,,5,美麗華,25.084817,121.5581193,go,0100007200
1046400360,,6,捷運劍南路站,25.085271,121.5546799,go,0100007200
1046400040,,7,自強隧道,25.083774,121.5490281,go,0100007200
1046300040,,8,植福宮,25.080848,121.5482394,go,0100007200
1046500560,,9,捷運大直站,25.079923,121.5461397,go,0100007200
1047200760,,10,河濱公園大佳段,25.072613,121.5406947,go,0100007200
1047200260,,11,大佳國小,25.072723,121.537013,go,0100007200
1047200840,,12,新生公園(林安泰),25.071815,121.5320496,go,0100007200
1047100740,,13,新生公園(松江),25.071033,121.532844,go,0100007200
1047100540,,14,新喜里,25.06693,121.53304,go,0100007200
1047200540,,15,行天宮,25.063484,121.5331713,go,0100007200
1046800240,,16,捷運行天宮站(松江路),25.060535,121.5331063,go,0100007200
1048500040,,17,長春松江路口,25.055006,121.533011,go,0100007200
1045700440,,18,捷運松江南京站,25.052281,121.5329812,go,0100007200
1045500140,,19,長安松江路口,25.048648,121.5329145,go,0100007200
1066600240,,20,光華商場,25.044608,121.5328606,go,0100007200
1065200140,,21,捷運忠孝新生站,25.040288,121.532693,go,0100007200
1065100040,,22,仁愛新生路口,25.038512,121.5326821,go,0100007200
1065600340,,23,信義新生路口,25.034036,121.5325798,go,0100007200
1065000240,,24,金華新生路口,25.03087,121.53346,go,0100007200
1066200020,,25,大安森林公園,25.025735,121.5362358,go,0100007200
1066200220,,26,龍門國中(和平),25.025407,121.5384921,go,0100007200
1062200020,,27,復興南路口,25.024914,121.5422397,go,0100007200
1067000120,,28,國立臺北教育大學,25.024603,121.5453433,go,0100007200
1066900020,,29,臥龍街,25.024522,121.547571,go,0100007200
1067500120,,30,和平安和路口,25.024272,121.5508618,go,0100007200
1067400020,,31,捷運六張犁站(和平),25.023243,121.5535345,go,0100007200
1067400120,,32,富陽街口,25.021034,121.5559108,go,0100007200
1067600520,,33,黎忠市場,25.01926,121.5578044,go,0100007200
1067600320,,34,捷運麟光站,25.01825,121.55853,go,0100007200
1067600620,,35,麟光站,25.015473,121.561041,go,0100007200
1067600040,,36,大我新舍,25.013874,121.5624664,go,0100007200
1046600840,進站中,1,敬業三路一,25.083024,121.556223,come,0100007200
1046600940,進站中,2,敬業三路二,25.081246,121.5562232,come,0100007200
1046201320,進站中,3,大直美堤花園三,25.079873,121.5566492,come,0100007200
1046601000,3分鐘,4,敬業四路,25.081142,121.558531,come,0100007200
1046400260,7分鐘,5,美麗華,25.084817,121.5581193,come,0100007200
1046400360,9分鐘,6,捷運劍南路站,25.085271,121.5546799,come,0100007200
1046400040,12分鐘,7,自強隧道,25.083774,121.5490281,come,0100007200
1046300040,13分鐘,8,植福宮,25.080848,121.5482394,come,0100007200
1046500560,15分鐘,9,捷運大直站,25.079923,121.5461397,come,0100007200
1047200760,21分鐘,10,河濱公園大佳段,25.072613,121.5406947,come,0100007200
1047200260,23分鐘,11,大佳國小,25.072723,121.537013,come,0100007200
1047200840,27分鐘,12,新生公園(林安泰),25.071815,121.5320496,come,0100007200
1047100740,27分鐘,13,新生公園(松江),25.071033,121.532844,come,0100007200
1047100540,28分鐘,14,新喜里,25.06693,121.53304,come,0100007200
1047200540,31分鐘,15,行天宮,25.063484,121.5331713,come,0100007200
1046800240,32分鐘,16,捷運行天宮站(松江路),25.060535,121.5331063,come,0100007200
1048500040,35分鐘,17,長春松江路口,25.055006,121.533011,come,0100007200
1045700440,36分鐘,18,捷運松江南京站,25.052281,121.5329812,come,0100007200
1045500140,39分鐘,19,長安松江路口,25.048648,121.5329145,come,0100007200
1066600240,進站中,20,光華商場,25.044608,121.5328606,come,0100007200
1065200140,進站中,21,捷運忠孝新生站,25.040288,121.532693,come,0100007200
1065100040,4分鐘,22,仁愛新生路口,25.038512,121.5326821,come,0100007200
1065600340,5分鐘,23,信義新生路口,25.034036,121.5325798,come,0100007200
1065000240,7分鐘,24,金華新生路口,25.03087,121.53346,come,0100007200
1066200020,13分鐘,25,大安森林公園,25.025735,121.5362358,come,0100007200
1066200220,13分鐘,26,龍門國中(和平),25.025407,121.5384921,come,0100007200
1062200020,14分鐘,27,復興南路口,25.024914,121.5422397,come,0100007200
1067000120,17分鐘,28,國立臺北教育大學,25.024603,121.5453433,come,0100007200
1066900020,18分鐘,29,臥龍街,25.024522,121.547571,come,0100007200
1067500120,21分鐘,30,和平安和路口,25.024272,121.5508618,come,0100007200
1067400020,24分鐘,31,捷運六張犁站(和平),25.023243,121.5535345,come,0100007200
1067400120,26分鐘,32,富陽街口,25.021034,121.5559108,come,0100007200
1067600520,27分鐘,33,黎忠市場,25.01926,121.5578044,come,0100007200
1067600320,27分鐘,34,捷運麟光站,25.01825,121.55853,come,0100007200
1067600620,28分鐘,35,麟光站,25.015473,121.561041,come,0100007200
1067600040,29分鐘,36,大我新舍,25.013874,121.5624664,come,0100007200
1005500340,,1,臺大醫院,25.042497,121.5185042,go,0100008800
1004800920,,2,中正紀念堂,25.037153,121.520771,go,0100008800
1004800820,,3,信義杭州路口,25.0357,121.5238361,go,0100008800
1064100120,,4,捷運東門站,25.034134,121.5269937,go,0100008800
1065000320,,5,信義永康街口(捷運東門站),25.033693,121.529727,go,0100008800
1006100020,,6,信義新生路口,25.03353,121.5323283,go,0100008800
1065600420,,7,捷運大安森林公園站,25.033496,121.5356316,go,0100008800
1065800120,,8,信義建國路口,25.033441,121.539045,go,0100008800
1065800420,,9,捷運大安站(信義),25.033323,121.5432319,go,0100008800
1068300220,,10,信義大安路口,25.0332,121.5456,go,0100008800
1068100120,,11,信義敦化路口,25.033262,121.548298,go,0100008800
1068500320,,12,捷運信義安和站(信義),25.033142,121.551229,go,0100008800
1067900420,,13,信義通化街口,25.033087,121.5539941,go,0100008800
1067900320,,14,信義光復路口,25.03311,121.55687,go,0100008800
1104900320,,15,捷運台北101/世貿站(信義),25.032802,121.564536,go,0100008800
1104700420,,16,信義松仁路口(信義),25.032733,121.5671167,go,0100008800
1104700720,,17,捷運象山站,25.032648,121.568984,go,0100008800
1108500020,,18,國稅局宿舍,25.03433,121.575678,go,0100008800
1107700520,,19,松山商職(福德),25.036219,121.5787474,go,0100008800
1107700620,,20,松友新村,25.036858,121.581141,go,0100008800
1107800120,,21,信義行政中心(奉天宮),25.037669,121.5832737,go,0100008800
1107900120,,22,福德國小,25.03918,121.58728,go,0100008800
1155500220,,23,成福路口,25.039468,121.588329,go,0100008800
1155500140,,24,成福宮,25.039097,121.5898,go,0100008800
1158200100,,25,南港花園社區二,25.040031,121.5911518,go,0100008800
1158200040,,26,南港花園社區一,25.041068,121.591596,go,0100008800
1158200320,,27,南港花園社區五,25.04004,121.5926,go,0100008800
1156900100,,28,南港公園一,25.043971,121.5929045,go,0100008800
1156900060,,29,南港公園,25.04584,121.59264,go,0100008800
1155800210,,30,衛生福利部,25.050778,121.596034,go,0100008800
1156100320,,31,南港機廠,25.051694,121.604333,go,0100008800
1156100521,,32,捷運南港站,25.051875,121.606373,go,0100008800
1157900200,,33,南港高工一,25.055781,121.607246,go,0100008800
1157300560,,34,南港高工(重陽),25.058039,121.605866,go,0100008800
1005500340,24分鐘,1,臺大醫院,25.042497,121.5185042,come,0100008800
1004800920,26分鐘,2,中正紀念堂,25.037153,121.520771,come,0100008800
1004800820,27分鐘,3,信義杭州路口,25.0357,121.5238361,come,0100008800
1064100120,29分鐘,4,捷運東門站,25.034134,121.5269937,come,0100008800
1065000320,30分鐘,5,信義永康街口(捷運東門站),25.033693,121.529727,come,0100008800
1006100020,31分鐘,6,信義新生路口,25.03353,121.5323283,come,0100008800
1065600420,33分鐘,7,捷運大安森林公園站,25.033496,121.5356316,come,0100008800
1065800120,34分鐘,8,信義建國路口,25.033441,121.539045,come,0100008800
1065800420,35分鐘,9,捷運大安站(信義),25.033323,121.5432319,come,0100008800
1068300220,36分鐘,10,信義大安路口,25.0332,121.5456,come,0100008800
1068100120,38分鐘,11,信義敦化路口,25.033262,121.548298,come,0100008800
1068500320,39分鐘,12,捷運信義安和站(信義),25.033142,121.551229,come,0100008800
1067900420,41分鐘,13,信義通化街口,25.033087,121.5539941,come,0100008800
1067900320,44分鐘,14,信義光復路口,25.03311,121.55687,come,0100008800
1104900320,47分鐘,15,捷運台北101/世貿站(信義),25.032802,121.564536,come,0100008800
1104700420,49分鐘,16,信義松仁路口(信義),25.032733,121.5671167,come,0100008800
1104700720,51分鐘,17,捷運象山站,25.032648,121.568984,come,0100008800
1108500020,53分鐘,18,國稅局宿舍,25.03433,121.575678,come,0100008800
1107700520,交管不停,19,松山商職(福德),25.036219,121.5787474,come,0100008800
1107700620,57分鐘,20,松友新村,25.036858,121.581141,come,0100008800
1107800120,57分鐘,21,信義行政中心(奉天宮),25.037669,121.5832737,come,0100008800
1107900120,59分鐘,22,福德國小,25.03918,121.58728,come,0100008800
1155500220,進站中,23,成福路口,25.039468,121.588329,come,0100008800
1155500140,進站中,24,成福宮,25.039097,121.5898,come,0100008800
1158200100,進站中,25,南港花園社區二,25.040031,121.5911518,come,0100008800
1158200040,3分鐘,26,南港花園社區一,25.041068,121.591596,come,0100008800
1158200320,4分鐘,27,南港花園社區五,25.04004,121.5926,come,0100008800
1156900100,5分鐘,28,南港公園一,25.043971,121.5929045,come,0100008800
1156900060,6分鐘,29,南港公園,25.04584,121.59264,come,0100008800
1155800210,8分鐘,30,衛生福利部,25.050778,121.596034,come,0100008800
1156100320,10分鐘,31,南港機廠,25.051694,121.604333,come,0100008800
1156100521,11分鐘,32,捷運南港站,25.051875,121.606373,come,0100008800
1157900200,14分鐘,33,南港高工一,25.055781,121.607246,come,0100008800
1157300560,16分鐘,34,南港高工(重陽),25.058039,121.605866,come,0100008800
